ROS2 Timestamp (sec),ROS2 Timestamp (nanosec),orientation_x,orientation_y,orientation_z,orientation_w,angular_velocity_x,angular_velocity_y,angular_velocity_z,linear_acceleration_x,linear_acceleration_y,linear_acceleration_z,left_hip_enc_rev,left_hip_pos,left_hip_vel,left_hip_iq,left_knee_enc_rev,left_knee_pos,left_knee_vel,left_knee_iq,left_wheel_enc_rev,left_wheel_pos,left_wheel_vel,left_wheel_iq,right_hip_enc_rev,right_hip_pos,right_hip_vel,right_hip_iq,right_knee_enc_rev,right_knee_pos,right_knee_vel,right_knee_iq,right_wheel_enc_rev,right_wheel_pos,right_wheel_vel,right_wheel_iq,left_leg_length,right_leg_length,roll,pitch,yaw,cmd_forward,cmd_left,cmd_up,cmd_roll,cmd_pitch,cmd_leg_split,Unified_Timestamp,label
1747914229,933566768,-0.0139955701306462,0.044243860989809,-0.1682967990636825,-0.9846434593200684,0.0322765596210956,0.0529527850449085,0.1145559772849083,0.03607177734375,-0.01556396484375,1.0030517578125,1,-4.460000038146973,-0.0700000002980232,0.0,1,-5.409999847412109,0.0,-2.819999933242798,34,3.3299999237060547,0.1000000014901161,6.829999923706055,0,1.919999957084656,-0.270000010728836,0.2399999946355819,0,0.7099999785423279,-0.0099999997764825,-7.300000190734863,52,-5.800000190734863,0.4699999988079071,1.2100000381469729,0.2539235949516296,0.2625410258769989,0.0127232053593224,-0.0919692725027143,0.3379858875315593,0.2,0.0,1.0,0.0,0.0,0.0,1747914229.9335668,2
1747914294,893412947,-0.010844743810594,0.034824289381504,-0.1687215268611908,-0.9849886894226074,-0.0018787449225783,-0.0482387915253639,0.0117717608809471,0.06536865234375,0.00567626953125,0.9993896484375,1,-4.360000133514404,0.0299999993294477,0.5600000023841858,1,-5.429999828338623,0.0,-6.670000076293945,33,1.7699999809265137,2.4100000858306885,0.9200000166893004,0,1.9800000190734863,0.0700000002980232,0.2599999904632568,0,0.7300000190734863,0.0,-6.809999942779541,50,-1.5199999809265137,2.6600000858306885,0.8399999737739563,0.2550908327102661,0.2615546584129333,0.009638031495633,-0.072325585032421,0.3389441733578878,0.2,0.0,1.0,0.0,0.0,0.0,1747914294.8934128,2
1747914296,632703067,-0.0124841257929801,0.0430136658251285,-0.1745600551366806,-0.9836273193359376,0.0771050155162811,0.1441218852996826,0.2861790657043457,0.005859375,0.06884765625,1.05157470703125,1,-4.380000114440918,-0.1400000005960464,0.8700000047683716,1,-5.460000038146973,-0.3400000035762787,-4.139999866485596,34,0.6399999856948853,0.6600000262260437,5.170000076293945,0,2.0,0.1099999994039535,-0.5600000023841858,0,0.7300000190734863,0.0,-7.090000152587891,51,-2.299999952316284,3.190000057220459,0.3600000143051147,0.2567938268184662,0.2615546584129333,0.0095806648315688,-0.0890951181717023,0.3508469751659108,0.2,0.0,1.0,0.0,0.0,0.0,1747914296.632703,2
1747914357,783333492,-0.0081199016422033,0.0054780011996626,-0.2090364396572113,-0.97785884141922,0.0198971517384052,0.1258810311555862,0.3615466654300689,-0.04156494140625,0.0205078125,0.98895263671875,1,-4.329999923706055,-0.1099999994039535,0.2599999904632568,1,-5.420000076293945,-0.1299999952316284,-4.519999980926514,34,6.159999847412109,0.3499999940395355,5.380000114440918,0,2.059999942779541,-0.0599999986588954,-0.0199999995529651,0,0.7400000095367432,0.0,-7.21999979019165,52,-3.3399999141693115,2.2699999809265137,0.5400000214576721,0.2545104026794433,0.2610516548156738,0.0135918026492557,-0.0141086025265939,0.4211036981636059,0.0,0.0,1.0,0.0,0.0,0.0,1747914357.7833335,2
1747914392,650921964,-0.0156084271147847,0.0414178855717182,-0.2197731733322143,-0.974546492099762,0.0541104935109615,0.1617063283920288,0.2192285358905792,-0.00732421875,0.15289306640625,1.04791259765625,1,-4.380000114440918,-0.2899999916553497,1.2699999809265137,1,-5.420000076293945,-0.0799999982118606,-3.5799999237060547,34,4.46999979019165,1.100000023841858,4.849999904632568,0,2.009999990463257,0.1800000071525573,-0.9100000262260436,0,0.7300000190734863,0.0099999997764825,-7.929999828338623,52,-4.800000190734863,3.4200000762939453,0.800000011920929,0.2545104026794433,0.2615546584129333,0.012264637337368,-0.0877003163163102,0.4430677851791402,0.2,0.0,1.0,0.0,0.0,0.0,1747914392.650922,2
1747914451,410242397,-0.0156752839684486,0.0117671703919768,-0.3269883990287781,-0.9448250532150269,-0.1741064339876175,-0.1017429903149604,0.3123827278614044,-0.135498046875,-0.04595947265625,1.111083984375,1,-4.320000171661377,0.3300000131130218,-2.7799999713897705,1,-5.510000228881836,-0.3499999940395355,-1.690000057220459,34,5.429999828338623,10.75,12.18000030517578,0,2.0,-0.0700000002980232,2.609999895095825,0,0.6899999976158142,-0.1400000005960464,-5.639999866485596,52,-4.440000057220459,2.740000009536743,1.2599999904632568,0.259503573179245,0.2635011374950409,0.021938684736041,-0.0324928240653034,0.666006546787022,0.4,0.0,1.0,0.0,0.0,0.0,1747914451.4102423,2
1747914479,994953367,-0.0191240608692169,0.0377047099173069,-0.2955676317214966,-0.9543859362602234,0.0042690159752964,-0.0948692262172699,0.3657553791999817,-0.06097412109375,0.1285400390625,0.9532470703125,1,-4.449999809265137,0.050000000745058,-1.4500000476837158,1,-5.429999828338623,-0.1000000014901161,-1.0299999713897705,36,1.820000052452088,8.880000114440918,10.869999885559082,0,1.919999957084656,-0.0299999993294477,1.919999957084656,0,0.699999988079071,-0.0299999993294477,-6.320000171661377,52,-5.730000019073486,2.440000057220459,1.4900000095367432,0.2550908327102661,0.2630243599414825,0.0142649151484021,-0.0833711449185229,0.6000580822283537,0.4,0.0,1.0,0.0,0.0,0.0,1747914479.9949534,2
1747914508,869214850,-0.0027016925159841,-0.026836821809411,-0.2547415196895599,-0.9666329622268676,-0.0373343452811241,-0.0059428261592984,0.0552713796496391,-0.16461181640625,0.03277587890625,1.143310546875,1,-4.25,-0.0799999982118606,-2.0,1,-5.46999979019165,0.0199999995529651,-1.870000004768372,39,2.1600000858306885,4.860000133514404,7.050000190734863,0,2.0799999237060547,-0.1199999973177909,2.180000066757202,0,0.6800000071525574,-0.1099999994039535,-5.610000133514404,53,-4.039999961853027,2.25,0.4600000083446502,0.2573486566543579,0.2639712989330292,0.0189212715402949,0.050527743866398,0.5158306976456607,0.4,0.0,1.0,0.0,0.0,0.0,1747914508.8692148,2
1747914612,893499461,0.0052115730941295,-0.0441315881907939,-0.3898777663707733,-0.9197937846183776,-0.4040299654006958,0.1052656695246696,0.0027856864035129,-0.35430908203125,-0.29205322265625,0.9605712890625,1,-4.03000020980835,0.550000011920929,-2.880000114440918,1,-5.539999961853027,0.2899999916553497,-1.590000033378601,38,4.840000152587891,19.15999984741211,8.100000381469727,0,2.200000047683716,-0.1599999964237213,5.269999980926514,0,0.7599999904632568,-0.2199999988079071,-9.460000038146973,51,-0.3400000035762787,0.0399999991059303,-1.8899999856948853,0.2610516548156738,0.2600260972976684,0.0249179807758196,0.0853512646229289,0.802899195202449,0.4,0.0,1.0,0.0,0.0,0.0,1747914612.8934994,2
1747914654,853271521,-0.0003615786554291,-0.0330925844609737,-0.3080747425556183,-0.9507864117622375,0.1695460230112075,0.1983451396226883,-0.1517065465450287,-0.18621826171875,0.081298828125,0.98565673828125,1,-4.179999828338623,0.0399999991059303,-2.109999895095825,1,-5.519999980926514,-0.1199999973177909,-2.609999895095825,42,1.059999942779541,5.070000171661377,7.230000019073486,0,2.0899999141693115,-0.3600000143051147,2.2300000190734863,0,0.7200000286102295,-0.0599999986588954,-7.489999771118164,52,-0.1299999952316284,0.3000000119209289,0.3700000047683716,0.2600260972976684,0.2620511054992676,0.0211206776557404,0.0627463377959109,0.6273552261402245,0.4,0.0,1.0,0.0,0.0,0.0,1747914654.8532715,2
1747914702,938855030,0.0031418267171829,-0.0364554524421691,-0.1910268515348434,-0.9809026718139648,-0.0183037873357534,0.2319683134555816,0.2418066561222076,-0.2449951171875,0.13311767578125,1.07574462890625,1,-4.210000038146973,0.0299999993294477,-0.75,1,-5.440000057220459,-0.4399999976158142,-3.75,41,4.119999885559082,3.4600000381469727,6.78000020980835,0,2.180000066757202,-0.1099999994039535,1.3200000524520874,0,0.7400000095367432,0.1000000014901161,-6.360000133514404,51,-2.6600000858306885,5.880000114440918,-0.3700000047683716,0.2556649148464203,0.2610516548156738,0.0077849774681353,0.0727830908466499,0.3849606028483457,0.4,0.0,1.0,0.0,0.0,0.0,1747914702.938855,2
1747914816,203980337,0.0251036453992128,-0.0928563475608825,-0.4292711913585663,-0.8980388641357422,-0.0509039647877216,0.1731270402669906,0.9426969885826112,-0.6529541015625,0.0047607421875,1.03729248046875,1,-3.9800000190734863,0.3000000119209289,-1.7200000286102295,1,-5.559999942779541,0.6600000262260437,0.270000010728836,45,0.5699999928474426,18.559999465942383,14.81999969482422,0,2.2699999809265137,-0.0700000002980232,4.230000019073486,0,0.8600000143051147,-0.1099999994039535,-11.65999984741211,51,-4.230000019073486,3.700000047683716,-3.609999895095825,0.2620511054992676,0.2545104026794433,0.0352713441784293,0.1894611975683125,0.895153747125177,0.6,0.0,1.0,0.0,0.0,0.0,1747914816.2039804,2
1747914891,402722605,-0.0123062673956155,-0.0076463352888822,-0.339325875043869,-0.9405573606491088,-0.2228619158267974,0.1822351813316345,0.229329377412796,-0.2021484375,-0.19757080078125,0.7950439453125,1,-4.190000057220459,0.2399999946355819,-1.0800000429153442,1,-5.510000228881836,0.7699999809265137,-0.9900000095367432,50,6.019999980926514,15.970000267028809,10.270000457763672,0,2.0899999141693115,0.0299999993294477,2.740000009536743,0,0.699999988079071,-0.0399999991059303,-8.520000457763672,51,-1.899999976158142,0.6600000262260437,-3.2100000381469727,0.259503573179245,0.2630243599414825,0.028343009774415,0.0060320005498372,0.6925615729572756,0.0,0.0,1.0,0.0,0.0,0.0,1747914891.4027226,2
1747914969,41497386,-0.015358343720436,0.0042169247753918,-0.2462832778692245,-0.9690670967102052,-0.089756391942501,-0.026230726391077,0.3098190128803253,-0.284912109375,-0.06317138671875,1.0045166015625,1,-4.210000038146973,0.6600000262260437,-1.950000047683716,1,-5.539999961853027,-0.3899999856948852,-2.0299999713897705,52,1.4900000095367432,19.270000457763672,10.4399995803833,0,2.109999895095825,0.1199999973177909,2.049999952316284,0,0.7300000190734863,0.0700000002980232,-8.029999732971191,52,-5.130000114440918,6.329999923706055,-0.9900000095367432,0.2610516548156738,0.2615546584129333,0.0236891111911434,-0.0145172617215969,0.4894173133912667,0.6,0.0,1.0,0.0,0.0,0.0,1747914969.0414977,2
1747915007,661442254,-0.0030680268537253,-0.0122725926339626,-0.3922177255153656,-0.919785499572754,0.110925443470478,0.0081530585885047,0.171464204788208,-0.33343505859375,-0.27667236328125,1.2828369140625,1,-4.119999885559082,0.3000000119209289,-4.46999979019165,1,-5.489999771118164,0.2599999904632568,-1.0299999713897705,52,4.760000228881836,17.350000381469727,7.599999904632568,0,2.0899999141693115,-0.3000000119209289,5.369999885559082,0,0.7300000190734863,-0.5400000214576721,-9.920000076293944,51,-4.75,-0.8199999928474426,-1.950000047683716,0.2584390342235565,0.2615546584129333,0.012535656469141,0.0213790466961716,0.8071406396464476,0.6,0.0,1.0,0.0,0.0,0.0,1747915007.6614425,2
1747915065,520192453,0.007995075546205,-0.0545445531606674,-0.3304658234119415,-0.942206621170044,-0.3295353651046753,0.1614160984754562,-0.158837080001831,-0.42425537109375,-0.05548095703125,0.91571044921875,1,-4.039999961853027,-0.050000000745058,-1.440000057220459,1,-5.480000019073486,0.7799999713897705,-2.9600000381469727,54,5.760000228881836,16.65999984741211,9.369999885559082,0,2.180000066757202,-0.1000000014901161,4.309999942779541,0,0.7599999904632568,-0.4000000059604645,-9.630000114440918,51,-5.119999885559082,0.1400000005960464,-2.430000066757202,0.2578970789909363,0.2600260972976684,0.0211093821968169,0.1082801427491226,0.675804803648334,0.6,0.0,1.0,0.0,0.0,0.0,1747915065.5201924,2
1747915175,18219579,-0.0089576905593276,-0.0214007049798965,-0.3357147872447967,-0.941677987575531,0.4633374512195587,0.1987132728099823,0.7967515587806702,-0.43011474609375,0.031494140625,1.7999267578125,1,-4.199999809265137,-0.0199999995529651,-2.109999895095825,1,-5.550000190734863,0.3899999856948852,1.659999966621399,58,1.649999976158142,19.489999771118164,12.960000038146973,0,2.0999999046325684,-0.1000000014901161,0.2800000011920929,0,0.800000011920929,0.0199999995529651,-12.18000030517578,50,-0.5799999833106995,5.150000095367432,1.0700000524520874,0.2615546584129333,0.2578970789909363,0.0312630614347662,0.034297410918472,0.68545605373863,0.8,0.0,1.0,0.0,0.0,0.0,1747915175.0182197,2
1747915210,737316230,0.0029623489826917,-0.0438898727297782,-0.1091828197240829,-0.9930478930473328,-0.0899266228079795,0.005867188796401,0.0,-0.1783447265625,-0.0069580078125,1.2161865234375,1,-4.170000076293945,0.0799999982118606,0.4000000059604645,1,-5.369999885559082,-0.0799999982118606,-6.039999961853027,58,4.130000114440918,10.279999732971191,0.5699999928474426,0,2.190000057220459,0.0099999997764825,0.7099999785423279,0,0.7300000190734863,0.0199999995529651,-7.199999809265137,49,-1.4600000381469729,10.40999984741211,0.6399999856948853,0.2515130937099457,0.2615546584129333,0.0062204627780673,0.0882636241316802,0.2190817864112986,0.8,0.0,1.0,0.0,0.0,0.0,1747915210.737316,2
1747915244,576827776,-0.0004465586389414,-0.0096708284690976,-0.1232740432024002,-0.992325484752655,-0.3094076812267303,0.2709766626358032,0.1411213278770446,-0.28839111328125,0.09814453125,1.04132080078125,1,-4.300000190734863,-0.7799999713897705,3.880000114440918,1,-5.380000114440918,-0.1299999952316284,-3.2100000381469727,60,2.619999885559082,6.619999885559082,10.100000381469728,0,2.109999895095825,0.2199999988079071,-2.3499999046325684,0,0.7400000095367432,-0.1099999994039535,-4.860000133514404,49,-2.930000066757202,10.59000015258789,3.470000028610229,0.2521252036094665,0.2610516548156738,0.0032711888028905,0.0190842793447866,0.2472197082569394,0.8,0.0,1.0,0.0,0.0,0.0,1747915244.5768278,2
1747915683,89224951,-0.0007621159311383,-0.0158413629978895,-0.3127257227897644,-0.9497110843658448,0.0120039777830243,0.0139736030250787,0.0,-0.04541015625,-0.01043701171875,1.02410888671875,1,-4.230000019073486,0.0700000002980232,0.4900000095367431,1,-5.429999828338623,0.0,-7.130000114440918,62,3.240000009536743,3.180000066757202,0.75,0,2.0999999046325684,0.0599999986588954,0.6200000047683716,0,0.7300000190734863,0.0,-5.900000095367432,49,-2.940000057220459,3.1700000762939453,0.6299999952316284,0.2550908327102661,0.2615546584129333,0.011360809890032,0.0296170992448873,0.6363737678011836,0.2,0.0,1.0,0.0,0.0,0.0,1747915683.089225,2
1747915830,66990015,0.0031810607761144,-0.0406215898692607,-0.4576906859874725,-0.8881773948669434,0.0589341670274734,0.1834828704595565,0.9481114745140076,-0.3427734375,0.09393310546875,1.25115966796875,1,-4.059999942779541,0.8399999737739563,-5.0,1,-5.53000020980835,0.0199999995529651,-2.819999933242798,68,3.2699999809265137,19.88999938964844,5.670000076293945,0,2.2100000381469727,-0.1099999994039535,5.079999923706055,0,0.8199999928474426,0.1000000014901161,-8.100000381469727,50,-5.889999866485596,2.9800000190734863,-3.0,0.2605421543121338,0.2567938268184662,0.0316280585975145,0.0751409291577513,0.9528370248360734,0.4,0.0,1.0,0.0,0.0,0.0,1747915830.06699,2
1747915848,845770373,-0.0067154420539736,-0.0177879221737384,-0.4544821083545685,-0.8905529379844666,0.3555724918842315,-0.0384922437369823,1.2048215866088867,-0.43780517578125,-0.0120849609375,1.38427734375,1,-4.21999979019165,0.550000011920929,-1.2599999904632568,1,-5.53000020980835,-0.4900000095367431,-2.0199999809265137,69,6.139999866485596,18.5,11.579999923706056,0,2.180000066757202,0.449999988079071,1.3899999856948853,0,0.800000011920929,0.2899999916553497,-7.760000228881836,49,-1.6100000143051147,8.0600004196167,-1.6799999475479126,0.2605421543121338,0.2578970789909363,0.0281424188897514,0.0255808660247259,0.9441259506189172,0.4,0.0,1.0,0.0,0.0,0.0,1747915848.8457704,2
1747915888,465630329,-0.0202371831983327,0.0082019483670592,-0.4209630191326141,-0.9068149328231812,0.0166458245366811,0.130643680691719,0.6339892148971558,-0.1827392578125,-0.17266845703125,0.88531494140625,1,-4.320000171661377,0.3000000119209289,-2.970000028610229,1,-5.480000019073486,-0.0399999991059303,-0.5,72,0.6000000238418579,8.699999809265137,10.579999923706056,0,2.009999990463257,0.0099999997764825,3.0999999046325684,0,0.7799999713897705,0.0199999995529651,-9.220000267028809,50,-5.769999980926514,4.239999771118164,-0.949999988079071,0.2578970789909363,0.2589745223522186,0.0298169293471286,-0.0319189296450998,0.8687588930442535,0.4,0.0,1.0,0.0,0.0,0.0,1747915888.4656303,2
1747915907,965760164,-0.0017560941632837,-0.0051868939772248,-0.3498049676418304,-0.9368065595626832,0.1090384200215339,0.1966763734817505,0.2694141566753387,-0.21881103515625,0.1787109375,1.08160400390625,1,-4.309999942779541,-0.6100000143051147,2.200000047683716,1,-5.369999885559082,-0.1700000017881393,-3.119999885559082,72,5.980000019073486,2.9200000762939453,7.199999809265137,0,2.0999999046325684,0.1599999964237213,-1.3200000524520874,0,0.7599999904632568,0.0199999995529651,-8.050000190734863,50,-5.820000171661377,6.210000038146973,1.3200000524520874,0.2515130937099457,0.2600260972976684,0.0069193481914041,0.0084897536634101,0.7147664001607014,0.4,0.0,1.0,0.0,0.0,0.0,1747915907.9657602,2
1747928703,80123769,0.0192135144025087,0.0008355389581993,0.2143615931272506,0.9765650033950806,5.837855860590935e-05,0.0296858567744493,1.4018954038619995,-0.380126953125,0.2373046875,0.8074951171875,1,-4.230000019073486,0.3600000143051147,-1.4900000095367432,1,-5.579999923706055,0.0299999993294477,0.5699999928474426,48,3.289999961853028,18.200000762939453,10.960000038146973,0,2.140000104904175,0.4199999868869781,2.690000057220459,0,0.800000011920929,0.4699999988079071,-9.520000457763672,48,-4.670000076293945,7.559999942779541,-3.940000057220459,0.2630243599414825,0.2578970789909363,0.0378946017339993,-0.006605410936531,0.4320323793407492,0.4,0.0,1.0,0.0,0.0,0.0,1747928703.0801237,2
1747928722,774694838,0.006631567608565,0.0521971061825752,0.0844155624508857,0.995040476322174,0.2000811398029327,-0.0267307665199041,0.9912665486335754,-0.40081787109375,0.03314208984375,1.4036865234375,1,-4.199999809265137,0.1500000059604644,-3.109999895095825,1,-5.480000019073486,-0.5799999833106995,-1.5,49,5.019999980926514,4.059999942779541,8.449999809265137,0,2.190000057220459,-0.1400000005960464,3.5199999809265137,0,0.7400000095367432,0.1400000005960464,-7.300000190734863,48,-3.150000095367432,6.090000152587891,-1.0199999809265137,0.2578970789909363,0.2610516548156738,0.0221287875880074,0.1029385508881123,0.1704073278401607,0.4,0.0,1.0,0.0,0.0,0.0,1747928722.774695,2
1747928773,274246371,-0.0117827970534563,0.0781275406479835,0.3492724299430847,0.9336841106414796,-0.1442731916904449,0.220499962568283,0.2226779460906982,-0.43780517578125,-0.32720947265625,0.6533203125,1,-4.0,0.6800000071525574,-0.3600000143051147,1,-5.570000171661377,0.0799999982118606,1.7000000476837158,50,4.210000038146973,18.96999931335449,8.979999542236328,0,2.299999952316284,0.1199999973177909,0.2399999946355819,0,0.7900000214576721,0.209999993443489,-11.56999969482422,48,-5.170000076293945,3.900000095367432,-2.5799999237060547,0.2625410258769989,0.2584390342235565,0.0329726457470875,0.1547404937513616,0.7184839043442891,0.0,0.0,1.0,0.0,0.0,0.0,1747928773.2742465,2
1747928788,813920522,0.000213123857975,0.0470251999795436,0.0880638659000396,0.9950042366981506,0.0592046938836574,0.208563819527626,0.3869988322257995,-0.2867431640625,0.23602294921875,1.077392578125,1,-4.179999828338623,-0.4199999868869781,2.039999961853028,1,-5.400000095367432,-0.0299999993294477,-3.819999933242798,51,3.940000057220459,3.869999885559082,5.630000114440918,0,2.200000047683716,0.0599999986588954,-0.3600000143051147,0,0.7300000190734863,-0.0199999995529651,-7.130000114440918,48,-6.269999980926514,6.039999961853027,1.4500000476837158,0.2533304691314697,0.2615546584129333,0.0087450158623268,0.0936799708748766,0.1769619399866873,0.4,0.0,1.0,0.0,0.0,0.0,1747928788.8139205,2
1747928863,492968437,-0.0099547449499368,0.0751926526427269,0.1880072355270385,0.979234516620636,-0.0143155669793486,-0.0005928529426455,0.0,-0.1578369140625,0.005859375,1.00634765625,1,-4.090000152587891,0.0,0.7200000286102295,1,-5.389999866485596,0.0,-7.829999923706055,52,5.070000171661377,0.0,-0.3400000035762787,0,2.25,0.0,0.2800000011920929,0,0.75,0.0,-7.289999961853027,47,-4.789999961853027,0.0,-0.3000000119209289,0.2527309954166412,0.2605421245098114,0.0088794020760966,0.151585468998038,0.3800459825225549,0.6,0.0,1.0,0.0,0.0,0.0,1747928863.4929683,2
1747928864,654497429,-0.0091409292072057,0.0901798829436302,0.2941266298294067,0.9514586925506592,0.1990645676851272,0.225246325135231,1.0817607641220093,-1.326416015625,0.06353759765625,1.12646484375,1,-4.079999923706055,1.059999942779541,-1.0800000429153442,1,-5.659999847412109,-1.1399999856948853,-2.0199999809265137,53,3.539999961853028,16.309999465942383,3.7799999713897705,0,2.2699999809265137,0.8399999737739563,-3.180000066757202,0,0.8799999952316284,0.959999978542328,-7.380000114440918,48,-5.880000114440918,11.520000457763672,0.0399999991059303,0.2666533887386322,0.2533304691314697,0.0362339663742531,0.1779192437605201,0.6028600221992074,0.6,0.0,1.0,0.0,0.0,0.0,1747928864.6544974,2
1747928891,432483394,-0.0079608606174588,0.0698751658201217,0.3606480956077575,0.930046796798706,0.1705628037452697,-0.0830535739660263,0.6745583415031433,-1.21435546875,-0.3057861328125,0.63116455078125,1,-4.050000190734863,0.5,-1.3700000047683716,1,-5.590000152587891,0.0900000035762786,-3.5,55,0.5699999928474426,20.88999938964844,8.15999984741211,0,2.240000009536743,0.0900000035762786,1.5399999618530271,0,0.8700000047683716,-0.2199999988079071,-7.429999828338623,48,-3.4600000381469727,5.460000038146973,-3.670000076293945,0.2635011374950409,0.253923624753952,0.0359328667863331,0.1361366044953077,0.7422951728227881,0.6,0.0,1.0,0.0,0.0,0.0,1747928891.4324834,2
1747928909,152212267,0.023311423137784,0.0070820786058902,0.2977809309959411,0.9543233513832092,0.2673076689243316,0.1760405153036117,1.8946235179901123,-0.35430908203125,0.18896484375,0.758056640625,1,-4.269999980926514,0.2300000041723251,0.0,1,-5.590000152587891,-0.0599999986588954,1.7000000476837158,55,2.559999942779541,15.859999656677246,13.489999771118164,0,2.130000114440918,0.209999993443489,1.9800000190734863,0,0.8600000143051147,0.8700000047683716,-10.289999961853027,47,-0.5299999713897705,10.6899995803833,-4.300000190734863,0.2635011374950409,0.2545104026794433,0.0487303740581503,-0.0003662085979395,0.6049109190852963,0.6,0.0,1.0,0.0,0.0,0.0,1747928909.1522124,2
1747928925,32314133,0.0007576220668852,0.0369139611721038,0.1418024152517318,0.9892061948776244,0.3968040347099304,0.1614331007003784,1.1510792970657349,-0.37298583984375,0.19647216796875,1.01751708984375,1,-4.269999980926514,-0.5099999904632568,1.1299999952316284,1,-5.440000057220459,-0.6800000071525574,-1.5800000429153442,56,2.2799999713897705,3.430000066757202,10.699999809265137,0,2.200000047683716,0.4000000059604645,-1.0499999523162842,0,0.7300000190734863,0.1199999973177909,-7.139999866485596,47,-0.4399999976158142,9.920000076293944,0.050000000745058,0.2556649148464203,0.2615546584129333,0.0120000092951399,0.0728806744704907,0.2851969557098541,0.6,0.0,1.0,0.0,0.0,0.0,1747928925.032314,2
1747929990,579639305,-0.0133943622931838,-0.0343467183411121,-0.8190531134605408,0.572532057762146,-0.1577095538377761,0.1181404218077659,1.990387201309204,-0.6602783203125,-0.4661865234375,0.63702392578125,1,-4.340000152587891,0.449999988079071,-2.8299999237060547,1,-5.610000133514404,-0.699999988079071,-1.4500000476837158,11,0.6899999976158142,17.030000686645508,2.950000047683716,0,2.059999942779541,0.2800000011920929,1.909999966621399,0,0.8100000023841858,0.5199999809265137,-5.730000019073486,4,-2.9800000190734863,10.789999961853027,-1.340000033378601,0.2644349038600921,0.2573486566543579,0.0410147049162201,-0.0613089836663586,-1.922718701777316,0.6,0.0,1.0,0.0,0.0,0.0,1747929990.5796392,2
1747930024,819731460,0.0003659879148472,-0.0260494649410247,-0.8141268491744995,0.5801023244857788,0.7072705030441284,-0.1586815863847732,1.761930227279663,-0.296630859375,-0.233642578125,1.47747802734375,1,-4.28000020980835,0.7599999904632568,-1.2899999618530271,1,-5.650000095367432,-0.949999988079071,2.7300000190734863,11,6.119999885559082,18.049999237060547,13.039999961853027,0,2.0999999046325684,0.2899999916553497,1.7100000381469729,0,0.8399999737739563,0.6399999856948853,-10.020000457763672,4,-2.640000104904175,10.970000267028809,-3.9600000381469727,0.2662230134010315,0.2556648850440979,0.0428717038304741,-0.0296311250004649,-1.904035604745728,0.6,0.0,1.0,0.0,0.0,0.0,1747930024.8197317,2
1747930073,978515829,0.0357903204858303,0.0157015733420848,-0.8493033647537231,0.5264562964439392,0.0187253467738628,0.2502031922340393,0.15126433968544,-0.4603271484375,-0.0941162109375,0.61065673828125,1,-4.210000038146973,-0.8399999737739563,1.899999976158142,1,-5.460000038146973,-0.3799999952316284,-2.380000114440918,11,5.769999980926514,3.930000066757202,9.770000457763672,0,2.200000047683716,0.2399999946355819,-2.3299999237060547,0,0.7200000286102295,-0.1099999994039535,-4.630000114440918,3,-1.5499999523162842,8.979999542236328,4.099999904632568,0.2567938268184662,0.2620511054992676,0.0110465800268974,0.0774033311607985,-2.031363557540056,0.6,0.0,1.0,0.0,0.0,0.0,1747930073.978516,2
1747930089,158916032,-0.0002694237045943,-0.0067902184091508,-0.8267627954483032,0.5625096559524536,0.2608572542667389,0.2911262214183807,0.7209803462028503,-0.30120849609375,0.16534423828125,0.94024658203125,1,-4.329999923706055,-0.7699999809265137,1.1299999952316284,1,-5.480000019073486,-0.5199999809265137,-3.809999942779541,12,5.5,3.930000066757202,9.68000030517578,0,2.109999895095825,0.3700000047683716,-1.7699999809265137,0,0.7300000190734863,0.1299999952316284,-5.590000152587891,3,-1.909999966621399,9.729999542236328,1.6299999952316284,0.2578970789909363,0.2615546584129333,0.0109252674207932,-0.0080847139053854,-1.946769227847359,0.0,0.0,1.0,0.0,0.0,0.0,1747930089.158916,2
1747930115,640184781,0.0306009128689765,0.0020032522734254,-0.7310396432876587,0.6816455721855164,0.3335055708885193,0.0606075972318649,1.3380051851272583,-1.5025634765625,-0.19720458984375,0.69671630859375,1,-4.210000038146973,0.8700000047683716,-1.2999999523162842,1,-5.650000095367432,-1.3300000429153442,-1.8899999856948853,15,5.309999942779541,17.889999389648438,0.0599999986588954,0,2.180000066757202,0.5899999737739563,-1.059999942779541,0,0.8500000238418579,0.6000000238418579,-6.599999904632568,3,-0.7099999785423279,11.229999542236328,-2.859999895095825,0.2662230134010315,0.2550908625125885,0.0388425876789487,0.047489825430979,-1.639774660923082,0.6,0.0,1.0,0.0,0.0,0.0,1747930115.6401849,2
1747930133,486318541,0.003771016607061,-0.0030815578065812,-0.8190343976020813,0.5737237334251404,0.2536076009273529,0.2795940041542053,0.6858060956001282,-0.24993896484375,0.3065185546875,1.11968994140625,1,-4.309999942779541,-0.7900000214576721,0.8199999928474426,1,-5.420000076293945,-0.4300000071525574,-2.0999999046325684,16,2.190000057220459,3.4200000762939453,9.609999656677246,0,2.0999999046325684,0.209999993443489,-1.4199999570846558,0,0.75,-0.0900000035762786,-5.400000095367432,3,-0.949999988079071,8.880000114440918,3.559999942779541,0.2545104026794433,0.2605421245098114,0.0093750171668648,0.0026412620021318,-1.9194734998755407,0.0,0.0,1.0,0.0,0.0,0.0,1747930133.4863186,2
1747930417,774524767,0.0154021009802818,0.009768009185791,-0.6036037802696228,0.7970758676528931,-0.0116349514573812,0.060474719852209,0.2576382160186767,-0.54254150390625,-0.21771240234375,1.11932373046875,1,-4.300000190734863,-0.0099999997764825,-1.1200000047683716,1,-5.409999847412109,-0.0299999993294477,-3.650000095367432,17,4.119999885559082,0.270000010728836,6.090000152587891,0,2.0899999141693115,-0.1400000005960464,1.0700000524520874,0,0.7300000190734863,0.0,-8.100000381469727,4,-3.990000009536743,1.9800000190734863,-0.8199999928474426,0.2539235949516296,0.2615546584129333,0.0127690728612895,0.034171871668827,-1.2960607022489716,0.2,0.0,1.0,0.0,0.0,0.0,1747930417.7745247,2
1747930440,283923133,0.0161945447325706,0.009768571704626,-0.5930767059326172,0.8049238920211792,-0.0112678911536932,-0.0342497825622558,0.024170346558094,-0.226318359375,-0.01849365234375,1.0272216796875,1,-4.329999923706055,-0.0199999995529651,-0.6200000047683716,1,-5.420000076293945,0.0,-2.6700000762939453,17,4.860000133514404,0.0099999997764825,6.539999961853027,0,2.039999961853028,-0.2599999904632568,0.7300000190734863,0,0.7300000190734863,0.0,-8.850000381469727,4,-3.5799999237060547,-0.1099999994039535,-0.7200000286102295,0.2545104026794433,0.2615546584129333,0.0144930811915309,0.034942238078536,-1.2697599275489948,0.2,0.0,1.0,0.0,0.0,0.0,1747930440.2839231,2
1747930454,394231113,0.0359442494809627,0.0350820943713188,-0.6408584117889404,0.7660142183303833,-0.0287924949079751,0.126159131526947,0.2188754379749298,-0.24664306640625,0.0618896484375,0.92120361328125,1,-4.179999828338623,-0.3799999952316284,0.8799999952316284,1,-5.409999847412109,-0.1400000005960464,-4.190000057220459,17,5.550000190734863,0.959999978542328,5.179999828338623,0,2.200000047683716,0.0900000035762786,-0.5299999713897705,0,0.75,0.0,-7.650000095367432,4,-3.990000009536743,3.650000095367432,0.959999978542328,0.2539235949516296,0.2605421245098114,0.010153182363389,0.0999836169848404,-1.3928348931884622,0.2,0.0,1.0,0.0,0.0,0.0,1747930454.394231,2
1747930515,833331980,0.0048362333327531,-0.0131636941805481,-0.4443013966083526,0.8957676887512207,0.0286557395011186,0.0441093444824218,0.1468642055988311,-0.123779296875,-0.06536865234375,1.11566162109375,1,-4.360000133514404,-0.0299999993294477,-1.6799999475479126,1,-5.429999828338623,0.0,-2.9200000762939453,18,3.130000114440918,0.3400000035762787,7.320000171661377,0,1.9600000381469729,-0.2199999988079071,1.3200000524520874,0,0.75,-0.0299999993294477,-8.260000228881836,4,-2.809999942779541,0.2599999904632568,0.550000011920929,0.2550908327102661,0.2605421245098114,0.0203667742329754,-0.0192869290961276,-0.9210826425788116,0.2,0.0,1.0,0.0,0.0,0.0,1747930515.833332,2
1747930531,613774174,0.0360963270068168,0.0510485172271728,-0.505214512348175,0.8607261180877686,-0.0396903306245803,0.1555623561143875,0.1885628402233123,-0.2867431640625,0.00091552734375,0.89794921875,1,-4.159999847412109,-0.2800000011920929,0.9800000190734864,1,-5.369999885559082,-0.050000000745058,-5.110000133514404,18,4.010000228881836,1.7100000381469729,4.320000171661377,0,2.2300000190734863,0.0,-0.1099999994039535,0,0.7300000190734863,0.0,-6.650000095367432,4,-3.2799999713897705,3.240000009536743,1.2300000190734863,0.2515130937099457,0.2615546584129333,0.0106399821416587,0.1246730831842719,-1.0608927694449175,0.2,0.0,1.0,0.0,0.0,0.0,1747930531.613774,2
1747930584,372499509,0.020305510610342,0.0107734892517328,-0.3705131411552429,0.9285427927970886,0.2525782883167267,0.3880188465118408,0.7163958549499512,-0.5701904296875,0.1864013671875,1.2073974609375,1,-4.260000228881836,0.5400000214576721,-5.309999942779541,1,-5.5,-0.9100000262260436,-4.449999809265137,19,0.7900000214576721,7.039999961853027,10.010000228881836,0,2.130000114440918,0.0199999995529651,3.740000009536743,0,0.7599999904632568,0.1800000071525573,-5.659999847412109,4,-3.880000114440918,7.039999961853027,-1.0099999904632568,0.2589745223522186,0.2600260972976684,0.0297483001014266,0.0350613916941642,-0.7588121293750865,0.4,0.0,1.0,0.0,0.0,0.0,1747930584.3724997,2
1747930605,72126444,0.02448096498847,0.0399513952434062,-0.3845770359039306,0.9219030141830444,0.3696946203708648,0.7597838640213013,0.6840044260025024,-1.0458984375,-0.1219482421875,1.42327880859375,1,-4.289999961853027,1.0499999523162842,-3.200000047683716,1,-5.46999979019165,-2.119999885559082,-3.0299999713897705,20,0.75,2.0299999713897705,11.479999542236328,0,2.0799999237060547,0.3600000143051147,-1.5,0,0.7900000214576721,0.7599999904632568,-5.789999961853027,4,-4.809999942779541,5.309999942779541,4.360000133514404,0.2573486566543579,0.2584390342235565,0.0144719107190098,0.0926246433048723,-0.7897447129971832,0.4,0.0,1.0,0.0,0.0,0.0,1747930605.0721264,2
1747930621,571939066,0.0269732326269149,0.0771654695272445,-0.387797474861145,0.918112814426422,0.1668985486030578,0.672762393951416,0.4703982770442962,-1.05340576171875,-0.16351318359375,0.5185546875,1,-4.309999942779541,0.3799999952316284,-2.509999990463257,1,-5.239999771118164,-1.409999966621399,-7.150000095367432,20,4.510000228881836,1.4700000286102295,9.880000114440918,0,2.130000114440918,0.0799999982118606,-0.5299999713897705,0,0.75,0.8100000023841858,-3.569999933242798,3,-1.2699999809265137,4.380000114440918,5.119999885559082,0.2429893612861633,0.2605421245098114,-0.0104596147072229,0.1633388495326755,-0.8001642044853494,0.4,0.0,1.0,0.0,0.0,0.0,1747930621.571939,2
1747930639,295164362,0.0272472873330116,0.019501632079482,-0.3300200998783111,0.943379044532776,-0.2259852439165115,0.2409285902976989,1.3206591606140137,-0.4918212890625,0.1234130859375,0.802734375,1,-4.130000114440918,0.4000000059604645,-4.010000228881836,1,-5.539999961853027,0.5400000214576721,-0.2000000029802322,21,4.860000133514404,17.31999969482422,11.670000076293944,0,2.200000047683716,0.1000000014901161,4.739999771118164,0,0.800000011920929,0.1299999952316284,-8.119999885559082,4,-4.340000152587891,5.539999961853027,-3.2699999809265137,0.2610516548156738,0.2578970789909363,0.0386047176676801,0.0548066006070007,-0.6719843056625837,0.4,0.0,1.0,0.0,0.0,0.0,1747930639.2951643,2
1747930665,491642326,0.004321745596826,-0.0144725749269127,-0.2958406805992126,0.9551178812980652,0.1808271557092666,0.2989882230758667,1.0389782190322876,-1.38134765625,-0.5467529296875,1.19732666015625,1,-4.309999942779541,0.3400000035762787,-3.559999942779541,1,-5.489999771118164,-0.8700000047683716,-2.470000028610229,21,3.859999895095825,6.619999885559082,7.789999961853027,0,2.0999999046325684,0.5799999833106995,-0.3600000143051147,0,0.7599999904632568,0.3000000119209289,-8.09000015258789,3,-2.549999952316284,8.069999694824219,-0.2599999904632568,0.2584390342235565,0.2600260972976684,0.0168247953998336,-0.0250915666880676,-0.6009527125954963,0.4,0.0,1.0,0.0,0.0,0.0,1747930665.4916422,2
1747930734,510035349,0.0183192752301692,0.0146829867735505,-0.2451660186052322,0.9691968560218812,0.0253285095095634,0.1798409223556518,1.2567713260650637,-1.72412109375,-0.17083740234375,1.16455078125,1,-4.269999980926514,0.6299999952316284,-4.760000228881836,1,-5.559999942779541,-1.25,-3.75,22,1.2699999809265137,11.289999961853027,2.8399999141693115,0,2.1700000762939453,0.5799999833106995,-0.5899999737739563,0,0.7900000214576721,0.4600000083446502,-5.289999961853027,3,-0.9200000166893004,11.079999923706056,-1.659999966621399,0.2620511054992676,0.2584390342235565,0.0283340873299433,0.0374526920066408,-0.4949906448625276,0.6,0.0,1.0,0.0,0.0,0.0,1747930734.5100353,2
1747930758,18035140,0.0019777982961386,-0.0118371788412332,-0.3263578116893768,0.9451701641082764,-0.0566344112157821,0.3181544840335846,0.4114973843097687,-0.322998046875,0.02252197265625,0.4383544921875,1,-4.320000171661377,-0.7599999904632568,2.789999961853028,1,-5.380000114440918,-0.0199999995529651,-0.8399999737739563,22,4.679999828338623,5.059999942779541,8.75,0,2.0799999237060547,0.050000000745058,-0.9399999976158142,0,0.7200000286102295,-0.0299999993294477,-6.46999979019165,3,-1.8600000143051147,8.4399995803833,2.7799999713897705,0.2521252036094665,0.2620511054992676,0.0114678242827335,-0.0210869193985334,-0.665066346726205,0.6,0.0,1.0,0.0,0.0,0.0,1747930758.0180352,2
1747930808,109392146,-0.0062451385892927,0.0601325184106826,-0.1625538915395736,0.9848458766937256,0.1593621522188186,0.1860840320587158,0.2072478830814361,-0.6126708984375,0.02069091796875,1.11822509765625,1,-4.420000076293945,-0.1700000017881393,-4.909999847412109,1,-5.090000152587891,-0.0900000035762786,-8.920000076293945,23,3.9700000286102295,0.2800000011920929,4.489999771118164,0,2.039999961853028,-0.1199999973177909,2.2699999809265137,0,0.6200000047683716,0.6700000166893005,-2.430000066757202,3,-2.890000104904175,1.25,2.319999933242798,0.2318815886974334,0.2666533887386322,-0.0320740814331318,0.1166767313219816,-0.3290340925846375,0.6,0.0,1.0,0.0,0.0,0.0,1747930808.1093922,2
1747930835,729167207,0.0183532536029815,0.0369686819612979,-0.1351533681154251,0.9899646639823914,-0.0403911285102367,0.095722772181034,1.3465782403945925,-1.677978515625,-0.9111328125,1.07281494140625,1,-4.25,0.3000000119209289,-1.0299999713897705,1,-5.539999961853027,-0.959999978542328,-1.1699999570846558,24,1.1299999952316284,15.90999984741211,7.800000190734863,0,2.200000047683716,0.2199999988079071,1.6399999856948853,0,0.800000011920929,0.5,-6.480000019073486,3,-0.4699999988079071,11.279999732971191,-0.7400000095367432,0.2610516548156738,0.2578970789909363,0.0264291724889168,0.0782361739078963,-0.270334719534365,0.6,0.0,1.0,0.0,0.0,0.0,1747930835.7291672,2
1747930857,228760864,0.0220916848629713,0.0707564726471901,-0.0562685579061508,0.9956602454185486,-0.1136178895831108,-0.0075978529639542,0.9495026469230652,-1.01312255859375,-0.15216064453125,1.311767578125,1,-4.099999904632568,0.6800000071525574,-0.8600000143051147,1,-5.590000152587891,-0.3400000035762787,-3.910000085830689,26,1.0099999904632568,21.799999237060547,1.0,0,2.319999933242798,0.2899999916553497,-0.5799999833106995,0,0.8399999737739563,0.1500000059604644,-6.960000038146973,3,-0.6700000166893005,8.5600004196167,-3.289999961853028,0.2635011374950409,0.2556648850440979,0.036413115482129,0.1438808645711796,-0.1102831356661438,0.6,0.0,1.0,0.0,0.0,0.0,1747930857.228761,2
1747930911,448142081,0.0171712264418602,0.0369764976203441,-0.0006484498735517,0.9991683959960938,-0.0684055760502815,-0.1835038810968399,1.0754107236862185,-1.30535888671875,-0.37774658203125,1.41632080078125,1,-4.199999809265137,0.6700000166893005,-0.6700000166893005,1,-5.599999904632568,-0.6000000238418579,-3.910000085830689,26,5.449999809265137,21.020000457763672,1.0099999904632568,0,2.25,0.7099999785423279,-0.8199999928474426,0,0.8100000023841858,0.2899999916553497,-6.210000038146973,3,-2.2799999713897705,10.970000267028809,-3.430000066757202,0.2639712989330292,0.2573486566543579,0.0343666901424423,0.0739812324880133,-2.6028811009056985e-05,0.6,0.0,1.0,0.0,0.0,0.0,1747930911.448142,2
1747930964,127350506,-0.0223828423768281,0.0537912622094154,0.0063399984501302,0.9982812404632568,0.0224071573466062,0.313796728849411,0.0741326957941055,-1.02117919921875,-0.00146484375,1.26763916015625,1,-4.480000019073486,-0.9900000095367432,-3.450000047683716,1,-5.010000228881836,1.2300000190734863,-10.4399995803833,27,6.070000171661377,1.1699999570846558,5.070000171661377,0,2.009999990463257,-0.0099999997764825,1.7400000095367432,0,0.5600000023841858,0.1199999973177909,-1.4199999570846558,3,-5.590000152587891,0.8999999761581421,3.7200000286102295,0.2254201024770736,0.2690955400466919,-0.0442785129510134,0.1078906232701884,0.0103103318845941,0.6,0.0,1.0,0.0,0.0,0.0,1747930964.1273506,2
1747930982,786960145,-0.0065175262279808,0.0347782969474792,0.0988776162266731,0.9944703578948976,-0.0575428493320941,-0.0159393642097711,-0.0406454280018806,-0.7408447265625,0.14044189453125,1.14422607421875,1,-4.389999866485596,-0.1700000017881393,-4.989999771118164,1,-5.260000228881836,1.350000023841858,-8.3100004196167,28,0.1899999976158142,3.4200000762939453,0.550000011920929,0,1.9800000190734863,0.2399999946355819,2.650000095367432,0,0.6200000047683716,-0.1599999964237213,-4.380000114440918,2,-1.399999976158142,0.6399999856948853,1.2000000476837158,0.2443684786558151,0.2666533887386322,-0.0061005835500912,0.0705192795702767,0.197988229969416,0.6,0.0,1.0,0.0,0.0,0.0,1747930982.78696,2
1747931024,866428625,-0.0180710759013891,0.0357301197946071,0.1046982705593109,0.993697702884674,-0.2004135698080063,-0.0641988962888717,-0.2742670476436615,-0.51654052734375,-0.18695068359375,0.79266357421875,1,-4.46999979019165,-1.309999942779541,-1.1799999475479126,1,-5.110000133514404,2.109999895095825,-8.029999732971191,29,1.2400000095367432,1.7400000095367432,2.400000095367432,0,1.9800000190734863,-0.0099999997764825,1.2200000286102295,0,0.5600000023841858,-0.2199999988079071,-3.539999961853028,2,-1.590000033378601,-0.5,2.509999990463257,0.2334393858909607,0.2690955400466919,-0.0285163374331975,0.074863807274664,0.2088819971353979,0.6,0.0,1.0,0.0,0.0,0.0,1747931024.8664286,2
1747931051,785803351,0.0098512014374136,0.0057242489419877,0.1408711373805999,0.98996239900589,0.2669392824172973,0.5092312097549438,1.4028915166854858,-2.42376708984375,-0.64324951171875,1.29217529296875,1,-4.349999904632568,0.4000000059604645,-4.119999885559082,1,-5.5,-1.1399999856948853,-0.800000011920929,29,2.700000047683716,9.779999732971191,8.020000457763672,0,2.109999895095825,0.3199999928474426,0.3100000023841858,0,0.7799999713897705,0.7400000095367432,-8.470000267028809,3,-6.21999979019165,10.3100004196167,2.509999990463257,0.2589745223522186,0.2589745223522186,0.0211197443234836,0.008558186998338,0.2827913992659543,0.6,0.0,1.0,0.0,0.0,0.0,1747931051.7858033,2
1747931176,384516279,0.0043187933042645,1.5795416402397677e-05,0.3177381455898285,0.948168694972992,0.0120586324483156,0.0573943182826042,0.3723498284816742,-0.57110595703125,-0.468017578125,0.976318359375,1,-4.239999771118164,0.1299999952316284,-1.2799999713897705,1,-5.400000095367432,-0.0299999993294477,-5.860000133514404,29,0.6399999856948853,3.559999942779541,0.3600000143051147,0,2.0999999046325684,0.0399999991059303,1.2599999904632568,0,0.7200000286102295,0.0,-7.420000076293945,3,-4.849999904632568,3.740000009536743,-0.0199999995529651,0.2533304691314697,0.2620511054992676,0.0078386148297897,-0.0047374395492853,0.6327582680719757,0.2,0.0,1.0,0.0,0.0,0.0,1747931176.3845162,1
1747931188,464567359,0.0028874075505882,0.0027948569040745,0.3144879341125488,0.9492529630661012,0.0227313339710235,0.0620389655232429,0.4466494917869568,-2.00445556640625,0.04193115234375,0.88787841796875,1,-4.239999771118164,0.25,-2.2100000381469727,1,-5.389999866485596,-0.0299999993294477,-6.429999828338623,29,1.2999999523162842,3.7100000381469727,-0.4399999976158142,0,2.109999895095825,0.1099999994039535,1.5099999904632568,0,0.7200000286102295,0.0,-7.440000057220459,3,-4.989999771118164,3.549999952316284,-0.550000011920929,0.2527309954166412,0.2620511054992676,0.0072397652268427,0.0034899498084742,0.6398523219003285,0.2,0.0,1.0,0.0,0.0,0.0,1747931188.4645674,1
1747931227,683848100,0.0041657006368041,-0.0005017151124775,0.3240984976291656,0.9460140466690063,0.0037350505590438,0.0875567495822906,0.5586391687393188,-1.64776611328125,-0.2823486328125,0.840087890625,1,-4.25,0.0599999986588954,0.0199999995529651,1,-5.400000095367432,0.0,-5.96999979019165,29,1.3200000524520874,3.630000114440918,0.1700000017881393,0,2.0999999046325684,0.0199999995529651,0.6899999976158142,0,0.7300000190734863,0.0,-7.510000228881836,3,-5.190000057220459,3.5799999237060547,0.2599999904632568,0.2533304691314697,0.2615546584129333,0.0075565346398174,-0.0036494618245129,0.6601095143449087,0.2,0.0,1.0,0.0,0.0,0.0,1747931227.683848,1
1747931263,103572340,-0.0060002603568136,0.0283157527446746,0.3244426846504211,0.9454624652862548,0.0768271908164024,0.2892369031906128,0.3166884183883667,-1.23504638671875,-0.032958984375,1.484619140625,1,-4.329999923706055,0.4600000083446502,-3.5199999809265137,1,-5.400000095367432,0.0799999982118606,-5.150000095367432,29,1.5199999809265137,3.559999942779541,3.670000076293945,0,2.0299999713897705,0.3799999952316284,0.0700000002980232,0,0.699999988079071,0.0299999993294477,-5.320000171661377,3,-5.949999809265137,2.859999895095825,4.050000190734863,0.2533304691314697,0.2630243599414825,0.0070393145640589,0.0574680708696866,0.6613348633999133,0.4,0.0,1.0,0.0,0.0,0.0,1747931263.1035724,1
1747931274,803162746,0.0036126712802797,-0.0019354065880179,0.3306934535503387,0.9437294006347656,-0.0165507085621356,0.0216173660010099,0.3407116532325744,-2.30511474609375,0.135498046875,1.25811767578125,1,-4.239999771118164,0.1000000014901161,-0.3700000047683716,1,-5.409999847412109,-0.0299999993294477,-6.389999866485596,29,2.200000047683716,6.099999904632568,0.3400000035762787,0,2.0999999046325684,0.0199999995529651,0.6800000071525574,0,0.7300000190734863,0.0199999995529651,-6.809999942779541,3,-5.449999809265137,5.710000038146973,0.3499999940395355,0.2539235949516296,0.2615546584129333,0.0055388450604116,-0.0060424104517548,0.6740657400014779,0.4,0.0,1.0,0.0,0.0,0.0,1747931274.8031628,1
1747931285,542756340,-0.003837265074253,0.0180860701948404,0.3340228796005249,0.9423837065696716,-0.0189762599766254,0.257175087928772,0.0903274342417717,-1.259765625,0.1197509765625,0.96551513671875,1,-4.340000152587891,0.1899999976158142,-1.1799999475479126,1,-5.429999828338623,0.0099999997764825,-5.050000190734863,29,2.3399999141693115,3.470000028610229,4.059999942779541,0,2.009999990463257,0.2000000029802322,-0.0199999995529651,0,0.6899999976158142,0.0099999997764825,-5.0,3,-6.050000190734863,2.900000095367432,3.9600000381469727,0.2550908327102661,0.2635011374950409,0.0048532502261662,0.0366597152203628,0.6813469408053915,0.4,0.0,1.0,0.0,0.0,0.0,1747931285.5427563,1
1747931300,22844324,-0.0070073092356324,0.0240101311355829,0.3412935435771942,0.9396239519119264,0.0378030613064765,0.3497733771800995,0.0945101752877235,-1.43206787109375,0.0736083984375,1.191650390625,1,-4.329999923706055,0.3199999928474426,-1.9700000286102293,1,-5.389999866485596,0.050000000745058,-5.309999942779541,29,2.440000057220459,3.680000066757202,3.940000057220459,0,2.0299999713897705,0.270000010728836,-0.0399999991059303,0,0.6700000166893005,0.0299999993294477,-4.570000171661377,3,-6.139999866485596,2.6700000762939453,4.159999847412109,0.2527309954166412,0.2644349038600921,0.0032245576135162,0.0499248243274817,0.6968932364680547,0.4,0.0,1.0,0.0,0.0,0.0,1747931300.0228443,1
1747931311,622687335,-0.0008496499503962,0.0242780931293964,0.3698323965072632,0.9287808537483216,-0.0119494143873453,0.965337574481964,0.2515277564525604,-0.3101806640625,0.07781982421875,1.043701171875,1,-4.289999961853027,-0.9800000190734864,-2.609999895095825,1,-5.460000038146973,-0.3100000023841858,-3.440000057220459,29,2.150000095367432,-7.869999885559082,7.46999979019165,0,2.049999952316284,-0.8299999833106995,-0.1599999964237213,0,0.699999988079071,-0.4799999892711639,-4.090000152587891,2,-0.0900000035762786,-6.909999847412109,6.340000152587891,0.2567938268184662,0.2630243599414825,0.016397259125641,0.0457424623285886,0.7582673680199853,0.4,0.0,1.0,0.0,0.0,0.0,1747931311.622687,1
1747931348,147306823,-0.0133565086871385,0.0232034027576446,0.3621939718723297,0.9317181706428528,0.2770833969116211,0.4185940325260162,0.3477753698825836,-1.470703125,-0.1563720703125,1.30609130859375,1,-4.340000152587891,1.7400000095367432,-5.53000020980835,1,-5.300000190734863,-0.1500000059604644,-11.529999732971191,29,3.4200000762939453,6.239999771118164,-5.920000076293945,0,2.059999942779541,0.9800000190734864,1.1799999475479126,0,0.6899999976158142,0.9300000071525574,-8.109999656677246,2,0.0,5.980000019073486,-5.519999980926514,0.2470532208681106,0.2635011374950409,-0.0080921629153883,0.0529380803078349,0.7413056647518274,0.6,0.0,1.0,0.0,0.0,0.0,1747931348.147307,1
1747931361,421964473,0.0069697834551334,-0.0031342443544417,0.384607195854187,0.923048734664917,0.0555743351578712,0.1270488202571869,1.091220498085022,-6.0,0.1849365234375,0.99700927734375,1,-4.159999847412109,1.3899999856948853,-7.03000020980835,1,-5.429999828338623,-0.3199999928474426,-9.25,29,4.440000057220459,7.820000171661377,-7.03000020980835,0,2.140000104904175,0.7799999713897705,3.140000104904175,0,0.7300000190734863,0.1299999952316284,-9.06999969482422,3,-5.610000133514404,8.390000343322754,-6.909999847412109,0.2550908327102661,0.2615546584129333,0.0104568340129376,-0.0111476091944034,0.7895305645565837,0.6,0.0,1.0,0.0,0.0,0.0,1747931361.4219644,1
1747931375,442159171,-0.0118210101500153,0.0233376491814851,0.4695978760719299,0.8824927806854248,0.0969216302037239,0.1891902685165405,0.5131099820137024,-1.62652587890625,-0.289306640625,1.2777099609375,1,-4.340000152587891,0.6100000143051147,-6.679999828338623,1,-5.369999885559082,0.3499999940395355,-7.78000020980835,28,5.730000019073486,5.079999923706055,0.7400000095367432,0,1.9900000095367432,0.3499999940395355,2.509999990463257,0,0.6499999761581421,0.1899999976158142,-4.0,3,-5.679999828338623,3.319999933242798,2.0999999046325684,0.2515130937099457,0.2653422057628631,0.0010561539743729,0.0523167185783349,0.9780623819767886,0.6,0.0,1.0,0.0,0.0,0.0,1747931375.4421592,1
1747931391,42246030,-0.0063042668625712,0.032380387187004,0.4877548217773437,0.872357189655304,-0.2597340047359466,0.9690839648246764,0.192637026309967,-0.2406005859375,-0.08642578125,0.96697998046875,1,-4.28000020980835,-1.409999966621399,-2.559999942779541,1,-5.550000190734863,-1.0,-2.3399999141693115,28,5.010000228881836,-11.149999618530272,10.359999656677246,0,2.009999990463257,-1.3300000429153442,0.0199999995529651,0,0.7099999785423279,-1.0499999523162842,-0.9800000190734864,3,-5.889999866485596,-10.239999771118164,9.079999923706056,0.2615546584129333,0.2625410258769989,0.0206302149820849,0.0626854455659451,1.020287523614866,0.6,0.0,1.0,0.0,0.0,0.0,1747931391.042246,1
1747931404,421353804,0.0017319073667749,0.0011225615162402,0.468752771615982,0.883327066898346,0.054670613259077,0.1404618471860885,1.301581621170044,-4.612060546875,-0.106201171875,0.8177490234375,1,-4.210000038146973,0.4900000095367431,-6.170000076293945,1,-5.409999847412109,-0.050000000745058,-9.460000038146973,29,0.6100000143051147,8.59000015258789,-0.9200000166893004,0,2.119999885559082,0.0700000002980232,3.539999961853028,0,0.7099999785423279,0.1099999994039535,-5.150000095367432,3,-5.150000095367432,7.889999866485596,-1.3200000524520874,0.2539235949516296,0.2625410258769989,0.0041121008075182,0.000359505194135,0.9757596080529676,0.6,0.0,1.0,0.0,0.0,0.0,1747931404.4213538,1
1747931452,641338355,0.0067512295208871,-0.0041836961172521,0.3878584206104278,0.921684741973877,-0.0666085183620452,0.0121627561748027,0.959130585193634,-6.0,-0.15325927734375,1.10687255859375,1,-4.210000038146973,0.8700000047683716,-7.389999866485596,1,-5.460000038146973,-0.2800000011920929,-2.930000066757202,28,6.170000076293945,7.900000095367432,1.659999966621399,0,2.119999885559082,1.0399999618530271,1.2400000095367432,0,0.7300000190734863,0.1400000005960464,-8.479999542236328,3,-3.680000066757202,10.859999656677246,-2.059999942779541,0.2567938268184662,0.2615546584129333,0.0092005481416875,-0.0129495021040665,0.7965809563984924,0.8,0.0,1.0,0.0,0.0,0.0,1747931452.6413383,1
1747931465,300851054,0.0052142809145152,0.003104341449216,0.4101257920265198,0.9120087623596193,0.6662001013755798,0.0870076045393943,1.308910250663757,-1.55218505859375,0.3336181640625,0.46343994140625,1,-4.21999979019165,0.9900000095367432,-2.3399999141693115,1,-5.46999979019165,-0.9800000190734864,-7.210000038146973,29,4.019999980926514,7.320000171661377,-7.239999771118164,0,2.200000047683716,1.5299999713897705,2.900000095367432,0,0.7099999785423279,0.25,-11.300000190734863,3,-3.5799999237060547,10.579999923706056,-12.18000030517578,0.2573486566543579,0.2625410258769989,0.0120575844921245,0.001385351469381,0.8452088714156628,0.8,0.0,1.0,0.0,0.0,0.0,1747931465.300851,1
1747931483,820197744,0.0062153278850018,-0.0045382557436823,0.4869313836097717,0.8734063506126404,0.0418504402041435,0.0271852947771549,0.2302360832691192,-2.013427734375,-0.1981201171875,1.28045654296875,1,-4.329999923706055,0.1899999976158142,0.3400000035762787,1,-5.389999866485596,0.0199999995529651,-5.550000190734863,29,6.050000190734863,9.239999771118164,1.090000033378601,0,2.0199999809265137,0.3300000131130218,0.209999993443489,0,0.7200000286102295,-0.0399999991059303,-6.920000076293945,3,-4.28000020980835,9.59000015258789,0.9300000071525574,0.2527309954166412,0.2620511054992676,0.006438049055499,-0.0139808146390298,1.017134120099641,0.8,0.0,1.0,0.0,0.0,0.0,1747931483.8201978,1
1747931512,319921673,0.0171554889529943,-0.025030480697751,0.4663539528846741,0.8840776085853577,0.0915970578789711,0.0908721461892128,1.130756974220276,-6.0,-1.3685302734375,0.54327392578125,1,-4.21999979019165,2.039999961853028,-8.5600004196167,1,-5.429999828338623,-0.4600000083446502,-10.699999809265137,30,4.079999923706055,8.979999542236328,-6.03000020980835,0,2.059999942779541,0.9200000166893004,2.539999961853028,0,0.75,0.6299999952316284,-11.609999656677246,4,-5.409999847412109,9.359999656677246,-7.110000133514404,0.2550908327102661,0.2605421245098114,0.0070002180299338,-0.0602953628419029,0.9706038983837008,0.8,0.0,1.0,0.0,0.0,0.0,1747931512.3199215,1
1747931529,339861946,0.0143277868628501,-0.0171640291810035,0.4718394875526428,0.8814009428024292,0.1735191941261291,0.457379013299942,0.9338014721870422,-2.80133056640625,-1.72869873046875,2.85791015625,1,-4.269999980926514,1.350000023841858,-12.68000030517578,1,-5.409999847412109,-0.1599999964237213,-10.359999656677246,30,3.7799999713897705,10.31999969482422,-1.7100000381469729,0,2.039999961853028,0.550000011920929,4.599999904632568,0,0.7200000286102295,0.209999993443489,-6.130000114440918,4,-4.710000038146973,9.970000267028809,0.0299999993294477,0.2539235949516296,0.2620511054992676,0.0090685344068497,-0.043791609450267,0.982820935742652,0.8,0.0,1.0,0.0,0.0,0.0,1747931529.339862,1
1747931732,557021170,-0.0143764102831482,0.0100914239883422,0.9111884832382202,0.4116152822971344,0.0399364531040191,0.0161687079817056,0.0111114121973514,-0.0706787109375,0.01959228515625,0.961669921875,1,-4.210000038146973,-0.0099999997764825,0.2000000029802322,1,-5.409999847412109,-0.0199999995529651,-6.630000114440918,30,3.470000028610229,3.2100000381469727,0.7400000095367432,0,2.130000114440918,-0.050000000745058,0.5099999904632568,0,0.7300000190734863,0.0,-6.690000057220459,4,-2.569999933242798,3.309999942779541,0.8399999737739563,0.2539235949516296,0.2615546584129333,0.0065592315525603,0.0345136592897161,2.293115122178432,0.2,0.0,1.0,0.0,0.0,0.0,1747931732.5570211,3
1747931754,416718593,-0.0313553996384143,0.017893049865961,0.8498759865760803,0.5257447957992554,-0.0099174454808235,0.0600931458175182,-0.2670576870441437,-0.14666748046875,0.02691650390625,1.04022216796875,1,-4.269999980926514,-0.2199999988079071,2.390000104904175,1,-5.380000114440918,0.0,-6.460000038146973,31,0.4900000095367431,0.8500000238418579,0.1299999952316284,0,2.0899999141693115,0.0099999997764825,-1.9900000095367432,0,0.6800000071525574,0.0099999997764825,-2.5199999809265137,4,-1.2100000381469729,0.800000011920929,8.130000114440918,0.2521252036094665,0.2639712989330292,-0.0025628042686444,0.0721734003199237,2.0335129843359754,0.2,0.0,1.0,0.0,0.0,0.0,1747931754.4167185,3
1747931768,119691766,-0.0341846980154514,0.0204683933407068,0.8874030113220215,0.4592695236206054,0.0128110935911536,0.0842946395277977,-0.195855438709259,-0.15362548828125,0.02764892578125,1.00836181640625,1,-4.25,-0.2899999916553497,1.5099999904632568,1,-5.409999847412109,0.0,-6.480000019073486,30,3.890000104904175,0.8700000047683716,0.6499999761581421,0,2.0799999237060547,-0.0399999991059303,-1.2899999618530271,0,0.7099999785423279,-0.0099999997764825,-3.5199999809265137,4,-0.6000000238418579,0.25,7.800000190734863,0.2539235949516296,0.2625410258769989,0.0049431025287055,0.0795561206704081,2.186622339015303,0.2,0.0,1.0,0.0,0.0,0.0,1747931768.1196918,3
1747931783,516128078,-0.0161232016980648,0.0110915657132864,0.9218090772628784,0.3871500790119171,-0.0327989794313907,-0.0010493453592061,0.0058132596313953,-0.06427001953125,0.00860595703125,0.995361328125,1,-4.199999809265137,-0.0099999997764825,0.1500000059604644,1,-5.420000076293945,0.0,-6.75,30,4.670000076293945,2.9600000381469727,0.6000000238418579,0,2.130000114440918,-0.0099999997764825,0.4300000071525574,0,0.7300000190734863,0.0,-6.769999980926514,5,-4.239999771118164,3.289999961853028,0.5,0.2545104026794433,0.2615546584129333,0.0079703506144656,0.0383226079947287,2.3465074632204512,0.0,0.0,1.0,0.0,0.0,0.0,1747931783.516128,3
1747931802,117158875,-0.0305714420974254,0.0219224449247121,0.8321489095687866,0.5532748103141785,0.0109305307269096,0.1328414976596832,-0.1613687574863433,-0.1387939453125,0.03680419921875,1.04461669921875,1,-4.25,-0.25,0.9900000095367432,1,-5.420000076293945,-0.0099999997764825,-7.090000152587891,31,0.1299999952316284,0.5199999809265137,1.0299999713897705,0,2.059999942779541,-0.0399999991059303,-1.090000033378601,0,0.7200000286102295,0.0,-2.7100000381469727,5,-5.239999771118164,0.050000000745058,8.5,0.2545104026794433,0.2620511054992676,0.0026641941083055,0.0752091398228748,1.9681708551101764,0.2,0.0,1.0,0.0,0.0,0.0,1747931802.117159,3
1747931850,738362686,-0.0336300730705261,0.0331617854535579,0.7877476215362549,0.6141847968101501,0.0560191236436367,0.0257340259850025,-0.2315896153450012,-0.23236083984375,0.0845947265625,0.94482421875,1,-4.309999942779541,-0.0099999997764825,3.180000066757202,1,-5.510000228881836,0.0,-5.730000019073486,31,3.890000104904175,1.649999976158142,1.7400000095367432,0,1.9900000095367432,-0.1199999973177909,-3.299999952316284,0,0.6899999976158142,0.0,-1.0499999523162842,5,-4.260000228881836,0.6800000071525574,11.640000343322754,0.259503573179245,0.2635011374950409,0.0109846427554956,0.0938566868610056,1.817663778712565,0.0,0.0,1.0,0.0,0.0,0.0,1747931850.7383628,3
1747931879,694931124,-0.0272858943790197,0.0140727767720818,0.8248465061187744,0.5645226240158081,0.2050044238567352,0.0797072798013687,-0.7540180683135986,-0.2677001953125,0.24700927734375,1.013671875,1,-4.289999961853027,-0.3199999928474426,3.069999933242798,1,-5.389999866485596,0.0,-6.909999847412109,31,2.5,2.059999942779541,-0.7300000190734863,0,2.140000104904175,0.3100000023841858,-2.7799999713897705,0,0.6800000071525574,0.0299999993294477,-3.470000028610229,5,-3.130000114440918,3.740000009536743,6.269999980926514,0.2527309954166412,0.2639712989330292,-0.0076054387280674,0.0609398624187563,1.9410062723263,0.4,0.0,1.0,0.0,0.0,0.0,1747931879.694931,3
1747931900,354994621,-0.0294769741594791,0.0378802008926868,0.7674835920333862,0.6392692923545837,-0.1077887415885925,0.0780633985996246,-0.1689375936985016,-0.45245361328125,-0.00421142578125,0.971923828125,1,-4.239999771118164,0.1899999976158142,0.5,1,-5.559999942779541,0.4399999976158142,-6.03000020980835,31,3.4600000381469727,2.789999961853028,-0.1299999952316284,0,2.0199999809265137,0.1599999964237213,-1.350000023841858,0,0.6899999976158142,-0.3700000047683716,-2.690000057220459,5,-0.1000000014901161,0.6000000238418579,8.020000457763672,0.2620511054992676,0.2635011374950409,0.0205492195217251,0.0938150410363426,1.7535428782527858,0.4,0.0,1.0,0.0,0.0,0.0,1747931900.3549943,3
1747931917,314482698,-0.0251902732998132,0.0086586847901344,0.8001141548156738,0.5992560386657715,-0.2477945238351822,-0.0962148904800415,-1.132416605949402,-0.23492431640625,0.298095703125,1.4527587890625,1,-4.28000020980835,-0.3700000047683716,5.78000020980835,1,-5.320000171661377,0.2599999904632568,-7.309999942779541,31,3.849999904632568,3.289999961853028,-2.880000114440918,0,2.190000057220459,0.6100000143051147,-4.550000190734863,0,0.6399999856948853,0.0599999986588954,-2.700000047683716,6,-3.1600000858306885,7.510000228881836,4.369999885559082,0.2483585923910141,0.2657859325408935,-0.0163567284027234,0.050709456759447,1.8555033965613457,0.4,0.0,1.0,0.0,0.0,0.0,1747931917.3144827,3
