ROS2 Timestamp (sec),ROS2 Timestamp (nanosec),orientation_x,orientation_y,orientation_z,orientation_w,angular_velocity_x,angular_velocity_y,angular_velocity_z,linear_acceleration_x,linear_acceleration_y,linear_acceleration_z,left_hip_enc_rev,left_hip_pos,left_hip_vel,left_hip_iq,left_knee_enc_rev,left_knee_pos,left_knee_vel,left_knee_iq,left_wheel_enc_rev,left_wheel_pos,left_wheel_vel,left_wheel_iq,right_hip_enc_rev,right_hip_pos,right_hip_vel,right_hip_iq,right_knee_enc_rev,right_knee_pos,right_knee_vel,right_knee_iq,right_wheel_enc_rev,right_wheel_pos,right_wheel_vel,right_wheel_iq,left_leg_length,right_leg_length,roll,pitch,yaw,cmd_forward,cmd_left,cmd_up,cmd_roll,cmd_pitch,cmd_leg_split,Unified_Timestamp,label
1747914229,174304839,-0.016657281666994,0.0743292272090911,-0.1314519494771957,-0.9883916974067688,0.0117697417736053,-0.0240295231342315,0.0,0.16278076171875,0.03826904296875,1.04058837890625,1,-4.400000095367432,0.050000000745058,0.270000010728836,1,-5.409999847412109,0.0,-6.309999942779541,34,2.1600000858306885,3.0799999237060547,0.2399999946355819,0,1.940000057220459,-0.0099999997764825,0.8199999928474426,0,0.7200000286102295,0.0,-7.329999923706055,51,-1.2599999904632568,2.970000028610229,0.3199999928474426,0.2539235949516296,0.2620511054992676,0.0135427337548517,-0.1518954675489042,0.2634092486721439,0.2,0.0,1.0,0.0,0.0,0.0,1747914229.1743047,2
1747914229,233698925,-0.01586071588099,0.0749386027455329,-0.1314199864864349,-0.9883630275726318,-0.0115857236087322,0.0105493105947971,-0.0065182670950889,0.134033203125,-0.0252685546875,0.98968505859375,1,-4.409999847412109,-0.0599999986588954,0.6000000238418579,1,-5.409999847412109,0.0399999991059303,-6.019999980926514,34,2.3399999141693115,2.869999885559082,0.6700000166893005,0,1.940000057220459,0.0299999993294477,0.5400000214576721,0,0.7200000286102295,-0.0599999986588954,-7.25,51,-1.0700000524520874,3.039999961853028,0.4399999976158142,0.2539235949516296,0.2620511054992676,0.0117932804193254,-0.1528969469051784,0.2634804593431268,0.2,0.0,1.0,0.0,0.0,0.0,1747914229.2336988,2
1747914229,293998189,-0.0159650016576051,0.0745387449860572,-0.1314015388488769,-0.988394021987915,-0.0062573044560849,-0.0281102582812309,0.0,0.1746826171875,0.0684814453125,1.0147705078125,1,-4.409999847412109,0.0,0.4199999868869781,1,-5.409999847412109,0.0,-5.940000057220459,34,2.4600000381469727,2.9800000190734863,0.5,0,1.940000057220459,0.050000000745058,0.5400000214576721,0,0.7200000286102295,-0.0099999997764825,-7.420000076293945,51,-0.9399999976158142,3.140000104904175,0.2000000029802322,0.2539235949516296,0.2620511054992676,0.0121105743990496,-0.1521290664057329,0.2634159487361335,0.2,0.0,1.0,0.0,0.0,0.0,1747914229.2939982,2
1747914229,333767454,-0.0160544589161872,0.0749356150627136,-0.1314225494861602,-0.988359808921814,-0.0241103786975145,0.0064254277385771,0.0,0.13751220703125,-0.04046630859375,0.97027587890625,1,-4.409999847412109,-0.0199999995529651,0.5099999904632568,1,-5.409999847412109,0.0299999993294477,-5.980000019073486,34,2.640000104904175,2.970000028610229,0.4300000071525574,0,1.940000057220459,-0.0199999995529651,0.8100000023841858,0,0.7200000286102295,-0.0299999993294477,-7.260000228881836,51,-0.7799999713897705,2.890000104904175,0.4699999988079071,0.2539235949516296,0.2620511054992676,0.0121811918115202,-0.1529420912088023,0.2634564282528225,0.2,0.0,1.0,0.0,0.0,0.0,1747914229.3337674,2
1747914229,393663215,-0.0153793804347515,0.0733547806739807,-0.1314601600170135,-0.9884840846061708,-0.0117086628451943,0.024397175759077,0.0,0.16314697265625,0.04998779296875,1.02410888671875,1,-4.409999847412109,-0.0399999991059303,0.4399999976158142,1,-5.409999847412109,0.0099999997764825,-5.659999847412109,34,2.75,2.75,1.0800000429153442,0,1.940000057220459,0.0599999986588954,0.3300000131130218,0,0.7099999785423279,-0.050000000745058,-7.210000038146973,51,-0.6499999761581421,3.0199999809265137,0.6499999761581421,0.2539235949516296,0.2625410258769989,0.0112439391417057,-0.1496212432845973,0.2635889198460693,0.2,0.0,1.0,0.0,0.0,0.0,1747914229.3936632,2
1747914229,433694069,-0.0158789064735174,0.0732229724526405,-0.1314875036478042,-0.9884823560714722,-0.0272269546985626,0.0024084700271487,0.0,0.1435546875,0.019775390625,0.98272705078125,1,-4.400000095367432,0.0199999995529651,0.550000011920929,1,-5.409999847412109,0.0,-5.809999942779541,34,2.9200000762939453,2.890000104904175,0.3799999952316284,0,1.950000047683716,0.0199999995529651,0.6800000071525574,0,0.7099999785423279,-0.0099999997764825,-7.489999771118164,51,-0.4699999988079071,2.990000009536743,0.1099999994039535,0.2539235949516296,0.2625410258769989,0.0122734162756798,-0.1494911613439013,0.2635673976742129,0.2,0.0,1.0,0.0,0.0,0.0,1747914229.433694,2
1747914229,493931961,-0.0151341948658227,0.0712650716304779,-0.1315566152334213,-0.9886279106140136,-0.001247169682756,0.0695798695087432,0.0004148967564105,0.11444091796875,-0.0234375,1.02264404296875,1,-4.409999847412109,-0.0399999991059303,0.6399999856948853,1,-5.400000095367432,0.0099999997764825,-5.369999885559082,34,3.059999942779541,2.490000009536743,1.3799999952316284,0,1.950000047683716,0.0900000035762786,0.0599999986588954,0,0.7099999785423279,-0.050000000745058,-7.409999847412109,51,-0.2899999916553497,2.970000028610229,0.5400000214576721,0.2533304691314697,0.2625410258769989,0.0112927954745244,-0.1454030968084551,0.2637629285051845,0.2,0.0,1.0,0.0,0.0,0.0,1747914229.493932,2
1747914229,533766197,-0.0150845646858215,0.0697484239935875,-0.1320631951093673,-0.9886692762374878,0.0197404213249683,0.0686060264706611,0.0192573145031929,0.13751220703125,0.0120849609375,0.99774169921875,1,-4.409999847412109,-0.0700000002980232,0.9800000190734864,1,-5.409999847412109,-0.0199999995529651,-4.900000095367432,34,3.190000057220459,2.150000095367432,2.130000114440918,0,1.950000047683716,0.0599999986588954,-0.0299999993294477,0,0.7099999785423279,-0.0099999997764825,-7.420000076293945,51,-0.1299999952316284,2.819999933242798,0.6000000238418579,0.2539235949516296,0.2625410258769989,0.0115217334204941,-0.1423810587927926,0.2647596795336678,0.2,0.0,1.0,0.0,0.0,0.0,1747914229.5337665,2
1747914229,593683937,-0.0143952211365103,0.0650280714035034,-0.1322513669729232,-0.9889761209487916,0.0312293637543916,0.1775692850351333,0.0150722153484821,0.05804443359375,0.056396484375,1.01568603515625,1,-4.420000076293945,-0.1700000017881393,1.3899999856948853,1,-5.409999847412109,-0.0199999995529651,-4.380000114440918,34,3.2100000381469727,1.6699999570846558,3.289999961853028,0,1.9600000381469729,0.0900000035762786,-0.6399999856948853,0,0.7099999785423279,0.0,-7.53000020980835,51,-0.0700000002980232,2.799999952316284,0.8700000047683716,0.2539235949516296,0.2625410258769989,0.0113733728428111,-0.1328201684458599,0.265117329037048,0.2,0.0,1.0,0.0,0.0,0.0,1747914229.593684,2
1747914229,633642749,-0.0142893446609377,0.061028990894556,-0.1346623450517654,-0.9889072179794312,0.0060966243036091,0.1377757787704467,0.1868126094341278,0.0736083984375,-0.0025634765625,1.048095703125,1,-4.429999828338623,-0.1899999976158142,1.3600000143051147,1,-5.409999847412109,0.0,-3.910000085830689,34,3.25,0.9900000095367432,4.159999847412109,0,1.9700000286102293,0.1899999976158142,-0.9100000262260436,0,0.7099999785423279,0.0,-8.020000457763672,52,-6.179999828338623,2.9100000858306885,0.1099999994039535,0.2539235949516296,0.2625410258769989,0.0119181443781315,-0.1248767988299707,0.2699357876385362,0.2,0.0,1.0,0.0,0.0,0.0,1747914229.633643,2
1747914229,673778793,-0.0141520434990525,0.0577059797942638,-0.1392028778791427,-0.9884798526763916,-0.0022809556685388,0.1262566149234771,0.2716356217861175,0.0574951171875,0.0406494140625,1.0133056640625,1,-4.440000057220459,-0.1400000005960464,0.5899999737739563,1,-5.409999847412109,-0.0199999995529651,-3.910000085830689,34,3.2799999713897705,0.6200000047683716,5.010000228881836,0,1.9700000286102293,-0.0299999993294477,-0.2199999988079071,0,0.7099999785423279,-0.0099999997764825,-7.420000076293945,52,-6.059999942779541,2.150000095367432,0.6299999952316284,0.2539235949516296,0.2625410258769989,0.0119964727138538,-0.118298133696296,0.279099999348689,0.2,0.0,1.0,0.0,0.0,0.0,1747914229.6737788,2
1747914229,733770934,-0.0137593606486916,0.0529251955449581,-0.1463537663221359,-0.987719714641571,0.0417013391852378,0.1074070557951927,0.1878598034381866,0.07269287109375,-0.02874755859375,0.9862060546875,1,-4.449999809265137,-0.1099999994039535,0.6800000071525574,1,-5.409999847412109,0.0,-3.740000009536743,34,3.299999952316284,0.4699999988079071,5.269999980926514,0,1.9600000381469729,-0.050000000745058,-0.3499999940395355,0,0.7099999785423279,-0.0099999997764825,-7.550000190734863,52,-5.960000038146973,1.870000004768372,0.2899999916553497,0.2539235949516296,0.2625410258769989,0.0117589693295321,-0.1087924672857699,0.2935658196972708,0.2,0.0,1.0,0.0,0.0,0.0,1747914229.7337708,2
1747914229,794048545,-0.0138201592490077,0.0494184121489524,-0.1532275527715683,-0.9868577122688292,0.0647396817803382,0.077038325369358,0.2506916522979736,0.0655517578125,0.02325439453125,1.0301513671875,1,-4.449999809265137,-0.1199999973177909,0.6499999761581421,1,-5.409999847412109,0.0,-3.470000028610229,34,3.309999942779541,0.3499999940395355,5.510000228881836,0,1.9600000381469729,-0.050000000745058,-0.3400000035762787,0,0.7099999785423279,0.0,-7.670000076293945,52,-5.920000076293945,1.809999942779541,0.2000000029802322,0.2539235949516296,0.2625410258769989,0.0121961645070248,-0.1019496551539927,0.3074540169322154,0.2,0.0,1.0,0.0,0.0,0.0,1747914229.7940483,2
1747914229,833729264,-0.0138766141608357,0.0476071052253246,-0.1584476083517074,-0.986121416091919,0.0238989815115928,0.0529527850449085,0.2454556822776794,0.0611572265625,-0.022705078125,1.0074462890625,1,-4.449999809265137,-0.0900000035762786,0.2800000011920929,1,-5.409999847412109,0.0,-3.3399999141693115,34,3.319999933242798,0.2399999946355819,6.03000020980835,0,1.950000047683716,-0.1299999952316284,0.0700000002980232,0,0.7099999785423279,0.0,-7.630000114440918,52,-5.840000152587891,1.4299999475479126,0.3499999940395355,0.2539235949516296,0.2625410258769989,0.0123416615316404,-0.0984491597412108,0.3180237455396634,0.2,0.0,1.0,0.0,0.0,0.0,1747914229.8337293,2
1747914229,873808616,-0.0138214342296123,0.0461169630289077,-0.1629823297262191,-0.985453724861145,0.0437957346439361,0.0372448228299617,0.2161341309547424,0.0615234375,0.00732421875,1.01678466796875,1,-4.460000038146973,-0.0799999982118606,0.209999993443489,1,-5.409999847412109,0.0,-3.130000114440918,34,3.319999933242798,0.1299999952316284,6.340000152587891,0,1.940000057220459,-0.2000000029802322,0.1400000005960464,0,0.7099999785423279,0.0,-7.53000020980835,52,-5.809999942779541,1.0700000524520874,0.6000000238418579,0.2539235949516296,0.2625410258769989,0.0122645089317324,-0.0955428582691524,0.3272225219449094,0.2,0.0,1.0,0.0,0.0,0.0,1747914229.8738086,2
1747914229,933566768,-0.0139955701306462,0.044243860989809,-0.1682967990636825,-0.9846434593200684,0.0322765596210956,0.0529527850449085,0.1145559772849083,0.03607177734375,-0.01556396484375,1.0030517578125,1,-4.460000038146973,-0.0700000002980232,0.0,1,-5.409999847412109,0.0,-2.819999933242798,34,3.3299999237060547,0.1000000014901161,6.829999923706055,0,1.919999957084656,-0.270000010728836,0.2399999946355819,0,0.7099999785423279,-0.0099999997764825,-7.300000190734863,52,-5.800000190734863,0.4699999988079071,1.2100000381469729,0.2539235949516296,0.2625410258769989,0.0127232053593224,-0.0919692725027143,0.3379858875315593,0.2,0.0,1.0,0.0,0.0,0.0,1747914229.9335668,2
1747914229,974364618,-0.0138592272996902,0.042639959603548,-0.1704426705837249,-0.9843469858169556,0.0437897704541683,0.0624446272850036,0.0873285308480262,0.04119873046875,-0.00439453125,1.0081787109375,1,-4.460000038146973,-0.0299999993294477,0.0,1,-5.409999847412109,0.0,-2.690000057220459,34,3.3299999237060547,0.1299999952316284,6.900000095367432,0,1.919999957084656,-0.1800000071525573,-0.0199999995529651,0,0.7099999785423279,-0.0099999997764825,-7.519999980926514,52,-5.78000020980835,0.4900000095367431,1.0299999713897705,0.2539235949516296,0.2625410258769989,0.0128000060521645,-0.0887860423696695,0.3423374186831041,0.2,0.0,1.0,0.0,0.0,0.0,1747914229.9743645,2
1747914230,36603086,-0.0140112023800611,0.0406566448509693,-0.173887625336647,-0.9838261604309082,0.0301783382892608,0.0541218854486942,0.1030355617403984,0.06719970703125,-0.04376220703125,0.99261474609375,1,-4.460000038146973,0.0099999997764825,-0.1700000017881393,1,-5.409999847412109,0.0,-2.7799999713897705,34,3.3399999141693115,0.0799999982118606,6.559999942779541,0,1.909999966621399,-0.1299999952316284,0.3400000035762787,0,0.7099999785423279,-0.0099999997764825,-7.71999979019165,52,-5.75,0.3300000131130218,0.6499999761581421,0.2539235949516296,0.2625410258769989,0.0134788389138973,-0.0849731111702684,0.3493061365061293,0.2,0.0,1.0,0.0,0.0,0.0,1747914230.036603,2
1747914230,95147915,-0.0136091625317931,0.0390069261193275,-0.1748169660568237,-0.983733892440796,0.0069695115089416,0.0322403237223625,0.0,0.06298828125,0.01593017578125,1.004150390625,1,-4.460000038146973,0.0099999997764825,0.0,1,-5.409999847412109,0.0,-2.5999999046325684,34,3.3399999141693115,0.0299999993294477,6.559999942779541,0,1.909999966621399,-0.1500000059604644,0.1099999994039535,0,0.7099999785423279,-0.0099999997764825,-7.829999923706055,52,-5.769999980926514,-0.0099999997764825,0.8799999952316284,0.2539235949516296,0.2625410258769989,0.013181678636069,-0.0815936005156237,0.3512051037246557,0.2,0.0,1.0,0.0,0.0,0.0,1747914230.0951478,2
1747914230,134207207,-0.0136387813836336,0.038283322006464,-0.1748260855674743,-0.9837602376937866,0.006989003624767,0.0208015758544206,0.0,0.06500244140625,0.0179443359375,1.01715087890625,1,-4.460000038146973,-0.0099999997764825,0.0399999991059303,1,-5.409999847412109,0.0,-2.4800000190734863,34,3.3399999141693115,0.0,6.389999866485596,0,1.899999976158142,-0.1199999973177909,0.0799999982118606,0,0.699999988079071,-0.0099999997764825,-8.0,52,-5.789999961853027,-0.2399999946355819,0.6600000262260437,0.2539235949516296,0.2630243599414825,0.0134924880340227,-0.0801779257916503,0.3512106943390841,0.2,0.0,1.0,0.0,0.0,0.0,1747914230.1342072,2
1747914264,694556712,-0.017392074689269,0.0504097640514373,-0.1914431750774383,-0.9800540208816528,0.0151966689154505,-0.0071518141776323,0.0,0.1029052734375,0.00750732421875,0.9920654296875,1,-4.46999979019165,-0.0299999993294477,-0.0399999991059303,1,-5.449999809265137,0.0,-0.9200000166893004,34,4.900000095367432,-0.0299999993294477,6.320000171661377,0,1.8799999952316284,-0.1000000014901161,0.3899999856948852,0,0.6700000166893005,-0.0599999986588954,-7.849999904632568,52,-4.210000038146973,-0.4399999976158142,0.3799999952316284,0.2562325596809387,0.2644349038600921,0.0146881298426995,-0.105332088119241,0.3850470752316876,0.2,0.0,1.0,0.0,0.0,0.0,1747914264.6945567,2
1747914264,736201185,-0.017194963991642,0.0505838878452777,-0.1914470046758651,-0.9800478219985962,0.0046577542088925,0.014841116964817,0.0,0.1094970703125,0.00201416015625,1.01055908203125,1,-4.46999979019165,-0.0099999997764825,-0.3600000143051147,1,-5.449999809265137,0.0299999993294477,-1.0099999904632568,34,4.900000095367432,-0.0099999997764825,6.309999942779541,0,1.870000004768372,-0.1199999973177909,0.6100000143051147,0,0.6700000166893005,-0.050000000745058,-7.46999979019165,52,-4.25,-0.5799999833106995,0.8399999737739563,0.2562325596809387,0.2644349038600921,0.0144168158105804,-0.1059311117018594,0.3850660861684451,0.0,0.0,1.0,0.0,0.0,0.0,1747914264.7362013,2
1747914294,247025555,-0.0136349871754646,0.052528478205204,-0.1684913486242294,-0.9842081665992736,0.0042496621608734,-0.0143826231360435,0.0,0.10272216796875,0.018310546875,0.9990234375,1,-4.349999904632568,0.0,0.7400000095367432,1,-5.429999828338623,0.0,-7.059999942779541,33,1.3200000524520874,0.0,0.050000000745058,0,1.9900000095367432,0.0,0.3000000119209289,0,0.7300000190734863,0.0,-7.050000190734863,50,-1.950000047683716,0.0,-0.1400000005960464,0.2550908327102661,0.2615546584129333,0.0091920297029985,-0.108203687792966,0.3386046644425953,0.2,0.0,1.0,0.0,0.0,0.0,1747914294.2470255,2
1747914294,299156262,-0.0136376749724149,0.0525640919804573,-0.1684916466474533,-0.9842060804367064,-0.0009887255728244,-0.0039030066691339,0.0,0.110595703125,0.005859375,1.00689697265625,1,-4.349999904632568,0.0,0.7400000095367432,1,-5.429999828338623,0.0,-7.059999942779541,33,1.3200000524520874,0.0,-0.0099999997764825,0,1.9900000095367432,0.0,0.3100000023841858,0,0.7300000190734863,0.0,-7.050000190734863,50,-1.950000047683716,0.0,-0.2399999946355819,0.2550908327102661,0.2615546584129333,0.0091852617564658,-0.1082749018408365,0.3386059327310715,0.2,0.0,1.0,0.0,0.0,0.0,1747914294.2991562,2
1747914294,336604194,-0.013741385191679,0.0524706281721591,-0.1684952676296234,-0.9842090606689452,0.0042717498727142,0.0765972435474395,0.0,0.1278076171875,0.0263671875,0.9345703125,1,-4.349999904632568,-0.1099999994039535,0.8600000143051147,1,-5.429999828338623,0.0,-7.599999904632568,33,1.2899999618530271,-0.4699999988079071,-1.4299999475479126,0,1.9800000190734863,-0.1299999952316284,0.5299999713897705,0,0.7300000190734863,0.0,-7.699999809265137,50,-1.9900000095367432,-0.5299999713897705,-1.5700000524520874,0.2550908327102661,0.2615546584129333,0.0094218473932962,-0.1081254132202614,0.3385999960338935,0.2,0.0,1.0,0.0,0.0,0.0,1747914294.336604,2
1747914294,392503093,-0.0125249298289418,0.0445187054574489,-0.1686313301324844,-0.9845936894416808,0.0210269093513488,0.3342078328132629,0.0,0.09539794921875,0.00164794921875,0.993896484375,1,-4.369999885559082,-0.1800000071525573,-0.1700000017881393,1,-5.429999828338623,0.0,-6.960000038146973,33,1.1799999475479126,-1.409999966621399,0.7599999904632568,0,1.9600000381469729,-0.2599999904632568,-0.0199999995529651,0,0.7300000190734863,-0.0099999997764825,-6.75,50,-2.109999895095825,-1.6200000047683716,1.0299999713897705,0.2550908327102661,0.2615546584129333,0.0096905868944808,-0.0920196737039021,0.3388022250000017,0.2,0.0,1.0,0.0,0.0,0.0,1747914294.392503,2
1747914294,434511001,-0.0116398371756076,0.0389852151274681,-0.1687084734439849,-0.9848259687423706,-0.0051530273631215,0.2420544624328613,0.0,0.13531494140625,0.0084228515625,1.004150390625,1,-4.369999885559082,-0.0599999986588954,-0.1299999952316284,1,-5.429999828338623,0.0,-7.260000228881836,33,1.1399999856948853,-1.0499999523162842,0.0,0,1.9600000381469729,-0.1400000005960464,0.1199999973177909,0,0.7300000190734863,0.0,-6.949999809265137,50,-2.1600000858306885,-1.309999942779541,0.3600000143051147,0.2550908327102661,0.2615546584129333,0.0098043012298806,-0.0808026819048138,0.3389257978626769,0.2,0.0,1.0,0.0,0.0,0.0,1747914294.434511,2
1747914294,492777079,-0.0106306485831737,0.0334243327379226,-0.1687765717506408,-0.9850301146507264,-0.0208609886467456,0.1928361803293228,0.0,0.11517333984375,0.00732421875,1.01788330078125,1,-4.369999885559082,-0.0599999986588954,0.0,1,-5.429999828338623,0.0,-7.139999866485596,33,1.1100000143051147,-0.6399999856948853,0.449999988079071,0,1.950000047683716,-0.0799999982118606,0.0799999982118606,0,0.7300000190734863,0.0,-6.800000190734863,50,-2.200000047683716,-0.8100000023841858,0.6899999976158142,0.2550908327102661,0.2615546584129333,0.0096840539900136,-0.0694922757037334,0.3390508386457069,0.2,0.0,1.0,0.0,0.0,0.0,1747914294.492777,2
1747914294,536255719,-0.0100223738700151,0.0306299701333045,-0.1687661409378051,-0.9851291179656982,-0.0145778050646185,0.1551370620727539,0.0,0.107666015625,0.01611328125,1.02740478515625,1,-4.369999885559082,-0.0599999986588954,0.0799999982118606,1,-5.429999828338623,0.0,-6.909999847412109,33,1.1100000143051147,-0.1199999973177909,0.8899999856948853,0,1.950000047683716,-0.0299999993294477,0.0299999993294477,0,0.7300000190734863,0.0,-6.670000076293945,50,-2.200000047683716,-0.1800000071525573,0.959999978542328,0.2550908327102661,0.2615546584129333,0.0094273655673748,-0.0637750484360556,0.3390327037944379,0.2,0.0,1.0,0.0,0.0,0.0,1747914294.5362558,2
1747914294,598567022,-0.0097515573725104,0.0285820923745632,-0.1687727123498916,-0.9851922392845154,0.0011578248813748,0.0659403726458549,0.0,0.1201171875,0.00146484375,1.0257568359375,1,-4.369999885559082,0.0,0.0199999995529651,1,-5.429999828338623,0.0,-6.920000076293945,33,1.1699999570846558,0.6399999856948853,0.959999978542328,0,1.950000047683716,-0.0099999997764825,0.1899999976158142,0,0.7300000190734863,0.0,-6.480000019073486,50,-2.1600000858306885,0.4699999988079071,1.2300000190734863,0.2550908327102661,0.2615546584129333,0.0095837512023626,-0.0596446626380194,0.339039151342115,0.2,0.0,1.0,0.0,0.0,0.0,1747914294.598567,2
1747914294,632859072,-0.0096444804221391,0.0286394357681274,-0.1687773317098617,-0.9851908683776855,-0.0061955088749527,0.0049776844680309,0.0,0.1204833984375,0.02178955078125,1.00836181640625,1,-4.369999885559082,0.0,0.0700000002980232,1,-5.429999828338623,0.0,-6.849999904632568,33,1.2000000476837158,0.8899999856948853,0.8299999833106995,0,1.950000047683716,0.0,0.2399999946355819,0,0.7300000190734863,0.0,-6.570000171661377,50,-2.130000114440918,0.7200000286102295,1.090000033378601,0.2550908327102661,0.2615546584129333,0.0093527432377566,-0.0597216555012836,0.3390552766065873,0.2,0.0,1.0,0.0,0.0,0.0,1747914294.632859,2
1747914294,692678609,-0.0096726398915052,0.0298961848020553,-0.168702945113182,-0.9851660132408142,-0.0009875481482595,-0.0267379507422447,-0.0003762021660804,0.100341796875,0.03167724609375,1.01898193359375,1,-4.369999885559082,0.0,0.2899999916553497,1,-5.429999828338623,0.0,-6.75,33,1.2999999523162842,1.4500000476837158,1.149999976158142,0,1.9600000381469729,0.0399999991059303,0.1400000005960464,0,0.7300000190734863,0.0,-6.539999961853027,50,-2.0299999713897705,1.440000057220459,1.190000057220459,0.2550908327102661,0.2615546584129333,0.008988671480698,-0.0622091329393812,0.3389166604267059,0.2,0.0,1.0,0.0,0.0,0.0,1747914294.6926787,2
1747914294,736063518,-0.009796661324799,0.0307037495076656,-0.1686847060918808,-0.9851430654525756,-0.0187165401875972,-0.0153352068737149,0.0,0.09173583984375,0.0252685546875,1.01806640625,1,-4.369999885559082,0.0299999993294477,0.3300000131130218,1,-5.429999828338623,0.0,-6.570000171661377,33,1.409999966621399,1.870000004768372,1.2599999904632568,0,1.9600000381469729,0.0900000035762786,0.0599999986588954,0,0.7300000190734863,0.0,-6.619999885559082,50,-1.899999976158142,2.039999961853028,1.1100000143051147,0.2550908327102661,0.2615546584129333,0.0089620983320677,-0.0638436280547941,0.3388819279161714,0.2,0.0,1.0,0.0,0.0,0.0,1747914294.7360637,2
1747914294,793412224,-0.0101936804130673,0.0319483466446399,-0.168703943490982,-0.9850961565971376,0.000161460833624,-0.0217677578330039,0.0,0.082763671875,-0.02655029296875,0.99444580078125,1,-4.360000133514404,0.1299999952316284,0.1199999973177909,1,-5.429999828338623,0.0,-6.849999904632568,33,1.5700000524520874,2.4200000762939453,0.7300000190734863,0,1.9700000286102293,0.0900000035762786,0.2899999916553497,0,0.7300000190734863,0.0,-6.579999923706055,50,-1.75,2.359999895095825,0.9700000286102296,0.2550908327102661,0.2615546584129333,0.0093245900226868,-0.0664326689097815,0.3389120495398394,0.2,0.0,1.0,0.0,0.0,0.0,1747914294.7934122,2
1747914294,832971276,-0.0101882377639412,0.0329334326088428,-0.1687267869710922,-0.9850597977638244,-0.0229309312999248,-0.047027800232172,0.0,0.088623046875,0.016845703125,1.00213623046875,1,-4.360000133514404,0.1400000005960464,0.1899999976158142,1,-5.429999828338623,0.0,-7.0,33,1.6299999952316284,2.5199999809265137,0.5799999833106995,0,1.9700000286102293,0.1099999994039535,0.2800000011920929,0,0.7300000190734863,0.0,-6.559999942779541,50,-1.690000057220459,2.5299999713897705,0.7599999904632568,0.2550908327102661,0.2615546584129333,0.008979644557381,-0.0683741207927599,0.3389720847073626,0.2,0.0,1.0,0.0,0.0,0.0,1747914294.832971,2
1747914294,893412947,-0.010844743810594,0.034824289381504,-0.1687215268611908,-0.9849886894226074,-0.0018787449225783,-0.0482387915253639,0.0117717608809471,0.06536865234375,0.00567626953125,0.9993896484375,1,-4.360000133514404,0.0299999993294477,0.5600000023841858,1,-5.429999828338623,0.0,-6.670000076293945,33,1.7699999809265137,2.4100000858306885,0.9200000166893004,0,1.9800000190734863,0.0700000002980232,0.2599999904632568,0,0.7300000190734863,0.0,-6.809999942779541,50,-1.5199999809265137,2.6600000858306885,0.8399999737739563,0.2550908327102661,0.2615546584129333,0.009638031495633,-0.072325585032421,0.3389441733578878,0.2,0.0,1.0,0.0,0.0,0.0,1747914294.8934128,2
1747914294,936037230,-0.0107411835342645,0.035200797021389,-0.1690429449081421,-0.984921395778656,0.0127041889354586,-0.0314955115318298,0.0075887478888034,0.09063720703125,-0.02215576171875,1.01458740234375,1,-4.349999904632568,0.050000000745058,0.1500000059604644,1,-5.429999828338623,0.0,-6.75,33,1.870000004768372,2.509999990463257,1.0399999618530271,0,1.9800000190734863,0.0399999991059303,0.3000000119209289,0,0.7300000190734863,0.0,-6.489999771118164,50,-1.4199999570846558,2.6600000858306885,1.1799999475479126,0.2550908327102661,0.2615546584129333,0.0092824298147248,-0.0730363947348051,0.3396105548259115,0.2,0.0,1.0,0.0,0.0,0.0,1747914294.9360373,2
1747914294,995992631,-0.0114827901124954,0.037881039083004,-0.1691404432058334,-0.9847968220710754,-0.0197192654013633,-0.0996582508087158,0.0117753855884075,0.08587646484375,0.0465087890625,1.03436279296875,1,-4.349999904632568,0.0199999995529651,0.6000000238418579,1,-5.429999828338623,0.0,-6.900000095367432,33,2.039999961853028,2.7100000381469727,0.4300000071525574,0,1.9800000190734863,0.0399999991059303,0.4099999964237213,0,0.7300000190734863,0.0,-6.840000152587891,50,-1.2300000190734863,2.990000009536743,0.3600000143051147,0.2550908327102661,0.2615546584129333,0.0098324947102944,-0.0785754928697942,0.3397976877327967,0.2,0.0,1.0,0.0,0.0,0.0,1747914294.995993,2
1747914295,32659122,-0.0117249926552176,0.0394894629716873,-0.1693637371063232,-0.9846923351287842,-0.0113479932770133,-0.0692825242877006,0.0243422240018844,0.07855224609375,-0.01593017578125,1.01092529296875,1,-4.349999904632568,0.0099999997764825,0.3899999856948852,1,-5.429999828338623,0.0,-6.78000020980835,33,2.1600000858306885,2.7799999713897705,0.9100000262260436,0,1.9800000190734863,0.0,0.4399999976158142,0,0.7300000190734863,0.0,-6.539999961853027,50,-1.1100000143051147,3.0,1.0099999904632568,0.2550908327102661,0.2615546584129333,0.0097476284195496,-0.0818328233478024,0.3402609981644826,0.2,0.0,1.0,0.0,0.0,0.0,1747914295.032659,2
1747914295,92717239,-0.0120304320007562,0.0420759730041027,-0.1696391254663467,-0.9845341444015504,-0.000998173141852,-0.1122344508767128,0.0201637558639049,0.1014404296875,0.03662109375,0.99078369140625,1,-4.349999904632568,0.0099999997764825,0.5799999833106995,1,-5.429999828338623,0.0,-6.78000020980835,33,2.3399999141693115,2.9600000381469727,0.4699999988079071,0,1.9800000190734863,0.0399999991059303,0.4199999868869781,0,0.7300000190734863,0.0,-6.789999961853027,50,-0.9100000262260436,3.299999952316284,0.3400000035762787,0.2550908327102661,0.2615546584129333,0.0094491921134995,-0.0870419959726742,0.3408455916572096,0.2,0.0,1.0,0.0,0.0,0.0,1747914295.0927172,2
1747914295,892818097,-0.0136293973773717,0.0524501204490661,-0.1715348064899444,-0.9836865067481996,0.0166317988187074,-0.0057715689763426,0.0,0.0963134765625,0.0234375,1.02301025390625,1,-4.349999904632568,0.0,0.5199999809265137,1,-5.420000076293945,0.0,-6.75,33,4.829999923706055,3.299999952316284,0.2399999946355819,0,1.9900000095367432,-0.0299999993294477,0.7599999904632568,0,0.7300000190734863,0.0,-6.949999809265137,51,-4.630000114440918,3.0899999141693115,0.2800000011920929,0.2545104026794433,0.2615546584129333,0.0088719444730378,-0.1080750507740042,0.3448073207313216,0.2,0.0,1.0,0.0,0.0,0.0,1747914295.8928182,2
1747914295,936037593,-0.0134090986102819,0.0522310510277748,-0.1713711619377136,-0.9837296605110168,0.000804255483672,0.0225958749651908,-0.0118653289973735,0.076171875,-0.0457763671875,1.0045166015625,1,-4.349999904632568,0.0,0.4699999988079071,1,-5.420000076293945,0.0,-6.659999847412109,33,5.03000020980835,3.289999961853028,0.270000010728836,0,1.9900000095367432,0.050000000745058,0.4199999868869781,0,0.7300000190734863,0.0,-7.03000020980835,51,-4.429999828338623,3.259999990463257,0.2000000029802322,0.2545104026794433,0.2615546584129333,0.0085294640206185,-0.1075656428450848,0.3444902482696804,0.2,0.0,1.0,0.0,0.0,0.0,1747914295.9360375,2
1747914295,992831063,-0.0135104265064001,0.0529602915048599,-0.1712855994701385,-0.9837042093276978,0.0333431549370288,-0.0370746254920959,0.0,0.10491943359375,0.04998779296875,1.01605224609375,1,-4.349999904632568,-0.0099999997764825,0.5199999809265137,1,-5.420000076293945,0.0,-6.550000190734863,33,5.230000019073486,3.2699999809265137,0.4199999868869781,0,1.9900000095367432,-0.0199999995529651,0.6499999761581421,0,0.7300000190734863,0.0,-7.010000228881836,51,-4.239999771118164,3.0999999046325684,0.4399999976158142,0.2545104026794433,0.2615546584129333,0.0084883686508498,-0.1090387463785951,0.3443261162463179,0.2,0.0,1.0,0.0,0.0,0.0,1747914295.992831,2
1747914296,32924465,-0.0137169389054179,0.0527308732271194,-0.1712796539068222,-0.9837146997451782,0.0114269508048892,0.0352809019386768,0.0,0.08294677734375,-0.0289306640625,0.9854736328125,1,-4.349999904632568,-0.0099999997764825,0.3600000143051147,1,-5.420000076293945,0.0,-6.460000038146973,33,5.289999961853027,3.240000009536743,0.6000000238418579,0,1.9900000095367432,-0.0299999993294477,0.5400000214576721,0,0.7300000190734863,0.0,-6.880000114440918,51,-4.190000057220459,3.049999952316284,0.6899999976158142,0.2545104026794433,0.2615546584129333,0.0089767160888658,-0.1086568150557644,0.3442858399123277,0.2,0.0,1.0,0.0,0.0,0.0,1747914296.0329244,2
1747914296,92977302,-0.013076533563435,0.053109835833311,-0.1712806969881057,-0.9837028980255128,-0.0316853933036327,-0.0337923839688301,0.0,0.10858154296875,0.04742431640625,1.05706787109375,1,-4.349999904632568,0.0099999997764825,0.6499999761581421,1,-5.420000076293945,0.0,-6.900000095367432,33,5.489999771118164,3.3399999141693115,-0.0299999993294477,0,1.9900000095367432,0.0099999997764825,0.6399999856948853,0,0.7300000190734863,0.0099999997764825,-7.059999942779541,51,-3.9800000190734863,3.25,-0.1599999964237213,0.2545104026794433,0.2615546584129333,0.0075786697568439,-0.1091849237090728,0.3443660061527848,0.2,0.0,1.0,0.0,0.0,0.0,1747914296.0929773,2
1747914296,132915156,-0.0132636353373527,0.0531690381467342,-0.1712539494037628,-0.9837018251419068,-0.0033230991102755,0.0175813231617212,0.0,0.07159423828125,0.01409912109375,0.96734619140625,1,-4.349999904632568,-0.0099999997764825,0.4300000071525574,1,-5.420000076293945,-0.0099999997764825,-6.659999847412109,33,5.619999885559082,3.220000028610229,0.6200000047683716,0,1.9900000095367432,-0.0299999993294477,0.5799999833106995,0,0.7300000190734863,0.0,-6.739999771118164,51,-3.869999885559082,3.0199999809265137,0.6100000143051147,0.2545104026794433,0.2615546584129333,0.0079315787209178,-0.1093657474427454,0.3442935704766529,0.2,0.0,1.0,0.0,0.0,0.0,1747914296.1329153,2
1747914296,196172430,-0.0127937560901045,0.0526208505034446,-0.1710698455572128,-0.9837695360183716,0.0216447971761226,-0.0168694723397493,0.0,0.09375,0.0025634765625,0.99884033203125,1,-4.349999904632568,0.0,0.5799999833106995,1,-5.420000076293945,-0.0099999997764825,-6.869999885559082,33,5.880000114440918,3.2100000381469727,0.2000000029802322,0,1.9900000095367432,0.0,0.550000011920929,0,0.7300000190734863,0.0,-6.820000171661377,51,-3.619999885559082,3.0999999046325684,0.1099999994039535,0.2545104026794433,0.2615546584129333,0.0072107019073926,-0.1081213686445752,0.3439509706967675,0.2,0.0,1.0,0.0,0.0,0.0,1747914296.1961725,2
1747914296,234032855,-0.0129118543118238,0.0526703894138336,-0.1710390299558639,-0.9837706685066224,0.0060629229992628,-0.002160245552659,0.0,0.07415771484375,0.03387451171875,1.0220947265625,1,-4.349999904632568,0.0,0.4300000071525574,1,-5.420000076293945,0.0,-6.75,33,5.940000057220459,3.2300000190734863,0.2899999916553497,0,1.9900000095367432,-0.0199999995529651,0.6600000262260437,0,0.7300000190734863,0.0,-6.840000152587891,51,-3.569999933242798,2.9800000190734863,0.3700000047683716,0.2545104026794433,0.2615546584129333,0.0074307927312377,-0.1082593749045433,0.3438773271551443,0.2,0.0,1.0,0.0,0.0,0.0,1747914296.2340329,2
1747914296,292643121,-0.0123971477150917,0.0521784797310829,-0.1708109676837921,-0.983843207359314,0.0017696553841233,0.0157364383339881,-0.0286157503724098,0.0791015625,-0.01025390625,1.0308837890625,1,-4.349999904632568,-0.0099999997764825,0.5199999809265137,1,-5.420000076293945,0.0,-6.789999961853027,33,6.130000114440918,3.130000114440918,0.5,0,1.9900000095367432,0.0,0.4099999964237213,0,0.7300000190734863,0.0,-6.699999809265137,51,-3.390000104904175,2.9200000762939453,0.6100000143051147,0.2545104026794433,0.2615546584129333,0.0066062934943456,-0.1071107141221667,0.3434509444067567,0.2,0.0,1.0,0.0,0.0,0.0,1747914296.292643,2
1747914296,332613288,-0.0121424617245793,0.0519398041069507,-0.1707393079996109,-0.9838714599609376,-0.0150044308975338,-0.0062096207402646,0.0,0.09136962890625,0.04302978515625,1.01348876953125,1,-4.349999904632568,0.0,0.5199999809265137,1,-5.420000076293945,0.0,-7.019999980926514,33,6.25,3.119999885559082,0.2300000041723251,0,1.9900000095367432,0.0099999997764825,0.4699999988079071,0,0.7300000190734863,0.0,-6.679999828338623,51,-3.2699999809265137,2.9800000190734863,0.2000000029802322,0.2545104026794433,0.2615546584129333,0.0061920671017441,-0.1065520788231941,0.3433238025544879,0.2,0.0,1.0,0.0,0.0,0.0,1747914296.3326132,2
1747914296,392591215,-0.012314049527049,0.0513442121446132,-0.170702263712883,-0.9839069843292236,0.0196956377476453,0.0420603603124618,0.0,0.0714111328125,-0.02069091796875,0.9971923828125,1,-4.349999904632568,-0.0299999993294477,0.4799999892711639,1,-5.420000076293945,0.0,-6.659999847412109,34,0.1500000059604644,2.950000047683716,0.7799999713897705,0,1.9900000095367432,-0.0099999997764825,0.4399999976158142,0,0.7300000190734863,0.0,-6.679999828338623,51,-3.109999895095825,2.8299999237060547,0.6700000166893005,0.2545104026794433,0.2615546584129333,0.0067400916058376,-0.1054351678957929,0.3432130666826177,0.2,0.0,1.0,0.0,0.0,0.0,1747914296.3925912,2
1747914296,436040443,-0.0117155723273754,0.0505523830652236,-0.1707180291414261,-0.983952522277832,-0.0139590883627533,-0.0091559933498501,0.0,0.0970458984375,0.00439453125,0.99847412109375,1,-4.349999904632568,0.0099999997764825,0.4600000083446502,1,-5.420000076293945,0.0,-6.949999809265137,34,0.270000010728836,3.009999990463257,0.4099999964237213,0,1.9900000095367432,0.0299999993294477,0.3499999940395355,0,0.7300000190734863,0.0,-6.679999828338623,51,-2.9800000190734863,2.970000028610229,0.3499999940395355,0.2545104026794433,0.2615546584129333,0.0058260386001867,-0.103667996313231,0.3432819554623632,0.2,0.0,1.0,0.0,0.0,0.0,1747914296.4360404,2
1747914296,493267981,-0.0120761711150407,0.0507369041442871,-0.170687660574913,-0.9839439392089844,0.0155287059023976,0.0191376768052577,0.0,0.08038330078125,0.0322265625,1.0015869140625,1,-4.349999904632568,-0.0399999991059303,0.6600000262260437,1,-5.420000076293945,0.0,-6.860000133514404,34,0.4399999976158142,2.819999933242798,0.75,0,1.9900000095367432,-0.0199999995529651,0.4399999976158142,0,0.7300000190734863,0.0,-6.610000133514404,51,-2.809999942779541,2.859999895095825,0.4600000083446502,0.2545104026794433,0.2615546584129333,0.0064793823397292,-0.1041552615682589,0.3431894940082379,0.2,0.0,1.0,0.0,0.0,0.0,1747914296.493268,2
1747914296,532788503,-0.011822385713458,0.0492099002003669,-0.1707103550434112,-0.9840206503868104,0.0039952769875526,0.0507163628935813,0.0002759881317615,0.08514404296875,-0.0289306640625,1.0191650390625,1,-4.349999904632568,-0.0399999991059303,0.5299999713897705,1,-5.420000076293945,0.0,-6.53000020980835,34,0.5400000214576721,2.640000104904175,1.409999966621399,0,1.9900000095367432,0.0099999997764825,0.0799999982118606,0,0.7300000190734863,0.0,-6.599999904632568,51,-2.690000057220459,2.890000104904175,0.8799999952316284,0.2545104026794433,0.2615546584129333,0.0064988654293963,-0.1010554352591278,0.3432171091376418,0.2,0.0,1.0,0.0,0.0,0.0,1747914296.5327885,2
1747914296,596190270,-0.0113206077367067,0.0471711307764053,-0.1712885946035385,-0.9840258955955504,0.0205563511699438,0.111658751964569,0.0222852900624275,0.0186767578125,0.07159423828125,1.00579833984375,1,-4.369999885559082,-0.1899999976158142,1.6299999952316284,1,-5.429999828338623,-0.0599999986588954,-5.53000020980835,34,0.6399999856948853,1.7599999904632568,3.0999999046325684,0,2.0,0.0900000035762786,-0.5,0,0.7300000190734863,0.0099999997764825,-6.920000076293945,51,-2.490000009536743,3.2100000381469727,0.5400000214576721,0.2550908327102661,0.2615546584129333,0.0061486507108074,-0.0968648164290054,0.3443867318008469,0.2,0.0,1.0,0.0,0.0,0.0,1747914296.5961902,2
1747914296,632703067,-0.0124841257929801,0.0430136658251285,-0.1745600551366806,-0.9836273193359376,0.0771050155162811,0.1441218852996826,0.2861790657043457,0.005859375,0.06884765625,1.05157470703125,1,-4.380000114440918,-0.1400000005960464,0.8700000047683716,1,-5.460000038146973,-0.3400000035762787,-4.139999866485596,34,0.6399999856948853,0.6600000262260437,5.170000076293945,0,2.0,0.1099999994039535,-0.5600000023841858,0,0.7300000190734863,0.0,-7.090000152587891,51,-2.299999952316284,3.190000057220459,0.3600000143051147,0.2567938268184662,0.2615546584129333,0.0095806648315688,-0.0890951181717023,0.3508469751659108,0.2,0.0,1.0,0.0,0.0,0.0,1747914296.632703,2
1747914296,697322548,-0.0135854575783014,0.0381755195558071,-0.1852573305368423,-0.981854259967804,0.0666330382227897,0.0886204093694686,0.4265035390853882,0.03973388671875,0.03424072265625,1.0382080078125,1,-4.369999885559082,-0.0099999997764825,0.2599999904632568,1,-5.46999979019165,-0.3100000023841858,-4.309999942779541,34,0.6700000166893005,0.5,5.199999809265137,0,2.0,0.0,0.209999993443489,0,0.7300000190734863,0.0299999993294477,-7.289999961853027,51,-2.130000114440918,2.8499999046325684,-0.2899999916553497,0.2573486566543579,0.2615546584129333,0.0125739196948996,-0.0800847816897454,0.3724735978440781,0.2,0.0,1.0,0.0,0.0,0.0,1747914296.6973226,2
1747914296,734925046,-0.0146155804395675,0.0361110046505928,-0.1932146847248077,-0.980382800102234,0.0886241868138313,0.0781484320759773,0.3814740478992462,0.03826904296875,0.0135498046875,1.02191162109375,1,-4.369999885559082,0.0399999991059303,0.0399999991059303,1,-5.480000019073486,-0.3499999940395355,-4.079999923706055,34,0.6800000071525574,0.5299999713897705,5.289999961853027,0,2.0,-0.0700000002980232,0.4300000071525574,0,0.7300000190734863,0.0199999995529651,-7.210000038146973,51,-2.0899999141693115,2.549999952316284,-0.1099999994039535,0.2578970789909363,0.2615546584129333,0.0147470695938622,-0.0765277808782019,0.3886096714073561,0.2,0.0,1.0,0.0,0.0,0.0,1747914296.734925,2
1747914296,796056605,-0.0155474692583084,0.0329233929514884,-0.2026414275169372,-0.978575885295868,0.0415003038942813,0.0928091928362846,0.2620935440063476,0.02069091796875,0.016845703125,1.00543212890625,1,-4.360000133514404,0.0799999982118606,-0.0900000035762786,1,-5.5,-0.3400000035762787,-3.640000104904175,34,0.7200000286102295,0.550000011920929,5.769999980926514,0,1.9800000190734863,-0.209999993443489,0.5199999809265137,0,0.7300000190734863,0.0,-7.079999923706055,51,-2.009999990463257,1.6699999570846558,0.5,0.2589745223522186,0.2615546584129333,0.0171292147413895,-0.0707963246602983,0.4077771148625096,0.2,0.0,1.0,0.0,0.0,0.0,1747914296.7960565,2
1747914296,832521800,-0.0158203020691871,0.0307992044836282,-0.2073140442371368,-0.9776614904403688,-0.0056235855445265,0.0886204093694686,0.2275360226631164,0.01318359375,0.03460693359375,0.9891357421875,1,-4.360000133514404,0.0599999986588954,-0.0900000035762786,1,-5.510000228881836,-0.209999993443489,-3.609999895095825,34,0.7400000095367432,0.6000000238418579,6.050000190734863,0,1.9800000190734863,-0.1599999964237213,0.3700000047683716,0,0.7300000190734863,0.0,-7.28000020980835,51,-1.9600000381469729,1.5099999904632568,0.3799999952316284,0.259503573179245,0.2615546584129333,0.0182052297348815,-0.0668316731218596,0.417302806950059,0.2,0.0,1.0,0.0,0.0,0.0,1747914296.832522,2
1747914357,31655763,-0.0089355483651161,0.0173723082989454,-0.1963111162185669,-0.9803470373153688,6.791600026190281e-05,0.0018235449679195,0.0,0.02801513671875,0.0340576171875,0.99224853515625,1,-4.289999961853027,0.0,0.3899999856948852,1,-5.409999847412109,0.0,-7.099999904632568,34,4.349999904632568,3.0299999713897705,0.5400000214576721,0,2.039999961853028,-0.0199999995529651,0.4199999868869781,0,0.7400000095367432,0.0099999997764825,-6.710000038146973,52,-5.579999923706055,2.7100000381469727,0.5400000214576721,0.2539235949516296,0.2610516548156738,0.010706885798932,-0.0375789209377231,0.3950640413321308,0.2,0.0,1.0,0.0,0.0,0.0,1747914357.0316558,2
1747914357,91113708,-0.0079333866015076,0.0171381514519453,-0.1957751810550689,-0.9804670214653016,-0.0264510437846183,-0.0033664763905107,-0.0202515162527561,0.03863525390625,-0.0340576171875,0.98602294921875,1,-4.289999961853027,-0.0099999997764825,0.5799999833106995,1,-5.409999847412109,0.0099999997764825,-7.050000190734863,34,4.53000020980835,2.9800000190734863,0.4099999964237213,0,2.049999952316284,0.0299999993294477,0.1599999964237213,0,0.7400000095367432,-0.0199999995529651,-6.789999961853027,52,-5.409999847412109,2.8299999237060547,0.4099999964237213,0.2539235949516296,0.2610516548156738,0.0088524819289774,-0.0367213573237068,0.3940044245888159,0.2,0.0,1.0,0.0,0.0,0.0,1747914357.0911138,2
1747914357,131348689,-0.0080626951530575,0.0173988454043865,-0.1955835521221161,-0.9804995656013488,0.0008263533236458,-0.0389675758779048,0.0,0.0574951171875,0.07672119140625,1.02154541015625,1,-4.289999961853027,0.0299999993294477,0.449999988079071,1,-5.409999847412109,-0.0199999995529651,-7.449999809265137,34,4.71999979019165,3.119999885559082,0.1099999994039535,0,2.049999952316284,-0.0199999995529651,0.5600000023841858,0,0.7400000095367432,0.0099999997764825,-6.690000057220459,52,-5.230000019073486,2.789999961853028,0.2800000011920929,0.2539235949516296,0.2610516548156738,0.0090114659742602,-0.0372816176420545,0.3936102841394639,0.2,0.0,1.0,0.0,0.0,0.0,1747914357.1313486,2
1747914357,177050665,-0.0084654157981276,0.0176159013062715,-0.1955414563417434,-0.9805006980895996,-0.0010682847350835,0.0060568461194634,-0.0024585425853729,0.0322265625,-0.00494384765625,0.97503662109375,1,-4.289999961853027,0.0099999997764825,0.3199999928474426,1,-5.409999847412109,0.0,-7.199999809265137,34,4.78000020980835,3.0899999141693115,0.3899999856948852,0,2.039999961853028,-0.0599999986588954,0.5799999833106995,0,0.7400000095367432,0.0,-6.619999885559082,52,-5.190000057220459,2.650000095367432,0.7400000095367432,0.2539235949516296,0.2610516548156738,0.0097185330913031,-0.0378645337503346,0.3935112493409223,0.2,0.0,1.0,0.0,0.0,0.0,1747914357.1770506,2
1747914357,231832656,-0.0075910724699497,0.0175156611949205,-0.1944139003753662,-0.9807338714599608,0.0028358027338981,-0.0137980170547962,-0.0296754166483879,0.0362548828125,0.0106201171875,0.99188232421875,1,-4.289999961853027,-0.0099999997764825,0.7200000286102295,1,-5.409999847412109,0.0,-7.130000114440918,34,4.960000038146973,3.0799999237060547,0.1199999973177909,0,2.049999952316284,0.050000000745058,0.0799999982118606,0,0.7400000095367432,0.0,-6.980000019073486,52,-5.0,2.990000009536743,0.1099999994039535,0.2539235949516296,0.2610516548156738,0.0080847842950189,-0.0373166846385221,0.3912412300570171,0.2,0.0,1.0,0.0,0.0,0.0,1747914357.2318327,2
1747914357,291883583,-0.0081670936197042,0.0181675255298614,-0.194338172674179,-0.9807323813438416,-0.0095660081133246,0.0113338399678468,0.0,0.0223388671875,0.02288818359375,0.9891357421875,1,-4.289999961853027,-0.0099999997764825,0.6200000047683716,1,-5.409999847412109,0.0,-7.110000133514404,34,5.139999866485596,3.0199999809265137,0.4799999892711639,0,2.049999952316284,0.0,0.3100000023841858,0,0.7400000095367432,0.0,-6.78000020980835,52,-4.829999923706055,2.900000095367432,0.4099999964237213,0.2539235949516296,0.2610516548156738,0.008965052880234,-0.0388190660548352,0.391070042829786,0.2,0.0,1.0,0.0,0.0,0.0,1747914357.2918837,2
1747914357,331840586,-0.0082876179367303,0.0177913606166839,-0.1943442523479461,-0.980737030506134,0.0040434557013213,-0.0053756097331643,0.0,0.03826904296875,-0.01483154296875,1.04534912109375,1,-4.289999961853027,0.0199999995529651,0.5600000023841858,1,-5.409999847412109,0.0,-7.21999979019165,34,5.329999923706055,3.0999999046325684,-0.0299999993294477,0,2.049999952316284,0.0299999993294477,0.2800000011920929,0,0.7400000095367432,0.0,-6.960000038146973,52,-4.639999866485596,3.069999933242798,0.0399999991059303,0.2539235949516296,0.2610516548156738,0.0093475798965254,-0.0381278314500736,0.3910759476784509,0.2,0.0,1.0,0.0,0.0,0.0,1747914357.3318405,2
1747914357,375594195,-0.0084345927461981,0.0183304883539676,-0.1943627893924713,-0.9807221293449402,-0.0044036339968442,-0.0452005341649055,0.0065598338842391,0.04376220703125,0.01300048828125,1.02777099609375,1,-4.289999961853027,0.0299999993294477,0.6100000143051147,1,-5.409999847412109,0.0,-7.309999942779541,34,5.389999866485596,3.109999895095825,-0.0900000035762786,0,2.049999952316284,0.0199999995529651,0.4000000059604645,0,0.7400000095367432,0.0,-7.039999961853027,52,-4.579999923706055,3.119999885559082,-0.1199999973177909,0.2539235949516296,0.2610516548156738,0.0094258503413156,-0.0392430448022361,0.3911113313895967,0.2,0.0,1.0,0.0,0.0,0.0,1747914357.375594,2
1747914357,435641982,-0.0091435462236404,0.0184533912688493,-0.194374144077301,-0.9807112812995912,-0.0104657374322414,0.021852808073163,0.0065506435930728,0.0208740234375,0.0146484375,0.94427490234375,1,-4.289999961853027,-0.0199999995529651,0.5600000023841858,1,-5.409999847412109,0.0,-6.880000114440918,34,5.559999942779541,2.8499999046325684,0.6299999952316284,0,2.049999952316284,-0.0099999997764825,0.1800000071525573,0,0.7400000095367432,-0.0099999997764825,-6.909999847412109,52,-4.400000095367432,3.049999952316284,0.5,0.2539235949516296,0.2610516548156738,0.010769352849417,-0.0397599108511934,0.3911087265297852,0.2,0.0,1.0,0.0,0.0,0.0,1747914357.435642,2
1747914357,492025681,-0.0090984711423516,0.018444700166583,-0.1947349458932876,-0.9806402325630188,0.009250208735466,-0.0262967348098754,0.0191238969564437,0.05474853515625,0.00439453125,1.043701171875,1,-4.289999961853027,0.0,0.6200000047683716,1,-5.409999847412109,0.0,-6.989999771118164,34,5.670000076293945,2.890000104904175,0.2300000041723251,0,2.049999952316284,0.0399999991059303,0.1899999976158142,0,0.7400000095367432,0.0,-7.119999885559082,52,-4.260000228881836,3.2100000381469727,0.0599999986588954,0.2539235949516296,0.2610516548156738,0.0106696200477027,-0.0397292614067217,0.3918464501367605,0.2,0.0,1.0,0.0,0.0,0.0,1747914357.4920256,2
1747914357,531864052,-0.0095666646957397,0.0183194447308778,-0.1953227967023849,-0.9805212616920472,-0.0052300198003649,0.0365703403949737,0.017021894454956,0.03863525390625,0.04632568359375,1.01531982421875,1,-4.289999961853027,-0.0299999993294477,0.6499999761581421,1,-5.409999847412109,0.0,-6.840000152587891,34,5.829999923706055,2.690000057220459,0.6499999761581421,0,2.049999952316284,0.0,0.2800000011920929,0,0.7400000095367432,0.0,-7.130000114440918,52,-4.070000171661377,3.140000104904175,0.2000000029802322,0.2539235949516296,0.2610516548156738,0.0116136250970063,-0.0396727917455703,0.3930278503811828,0.2,0.0,1.0,0.0,0.0,0.0,1747914357.5318642,2
1747914357,591743174,-0.0094990124925971,0.0168412178754806,-0.1966404318809509,-0.9802850484848022,0.0208664871752262,0.0345986187458038,0.0473921000957489,0.0289306640625,-0.047607421875,0.9854736328125,1,-4.289999961853027,-0.0199999995529651,0.4699999988079071,1,-5.409999847412109,0.0,-6.690000057220459,34,5.929999828338623,2.5999999046325684,1.0499999523162842,0,2.049999952316284,0.0,0.2300000041723251,0,0.7400000095367432,0.0,-7.059999942779541,52,-3.9600000381469727,3.0299999713897705,0.5299999713897705,0.2539235949516296,0.2610516548156738,0.0120085532806485,-0.0367624480457484,0.3957147954078453,0.2,0.0,1.0,0.0,0.0,0.0,1747914357.5917432,2
1747914357,635645839,-0.0092891687527298,0.016063816845417,-0.1977645605802536,-0.9800739288330078,0.0082780355587601,0.0503567568957805,0.0599587336182594,0.01666259765625,0.0443115234375,1.015869140625,1,-4.300000190734863,-0.0399999991059303,0.75,1,-5.409999847412109,-0.0099999997764825,-6.5,34,6.070000171661377,2.3399999141693115,1.2999999523162842,0,2.049999952316284,0.0399999991059303,0.0599999986588954,0,0.7400000095367432,0.0,-7.289999961853027,52,-3.759999990463257,3.130000114440918,0.0700000002980232,0.2539235949516296,0.2610516548156738,0.0118620498947576,-0.0351688422291194,0.398014715923656,0.2,0.0,1.0,0.0,0.0,0.0,1747914357.635646,2
1747914357,691846840,-0.0087675554677844,0.0121483774855732,-0.1995600759983062,-0.979771077632904,-0.0073299845680594,0.1531081646680832,0.1018416658043861,-0.04046630859375,0.01153564453125,0.96807861328125,1,-4.309999942779541,-0.1700000017881393,1.149999976158142,1,-5.409999847412109,-0.0399999991059303,-5.460000038146973,34,6.119999885559082,1.6699999570846558,3.130000114440918,0,2.059999942779541,0.0199999995529651,-0.4399999976158142,0,0.7400000095367432,0.0,-7.300000190734863,52,-3.650000095367432,2.890000104904175,0.8799999952316284,0.2539235949516296,0.2610516548156738,0.0123366446589429,-0.027307959781993,0.4016951616348816,0.2,0.0,1.0,0.0,0.0,0.0,1747914357.6918468,2
1747914357,731777808,-0.008273858577013,0.0083070043474435,-0.202813059091568,-0.9791472554206848,0.0052363858558237,0.1353058069944381,0.2515909075736999,-0.0347900390625,0.06390380859375,1.04095458984375,1,-4.320000171661377,-0.2199999988079071,1.2300000190734863,1,-5.409999847412109,-0.0299999993294477,-4.829999923706055,34,6.150000095367432,0.7900000214576721,4.599999904632568,0,2.069999933242798,0.1400000005960464,-0.8999999761581421,0,0.7400000095367432,0.0,-7.699999809265137,52,-3.470000028610229,3.0199999809265137,0.1099999994039535,0.2539235949516296,0.2610516548156738,0.0128359380342803,-0.0196249138420691,0.4083621720776407,0.2,0.0,1.0,0.0,0.0,0.0,1747914357.731778,2
1747914357,783333492,-0.0081199016422033,0.0054780011996626,-0.2090364396572113,-0.97785884141922,0.0198971517384052,0.1258810311555862,0.3615466654300689,-0.04156494140625,0.0205078125,0.98895263671875,1,-4.329999923706055,-0.1099999994039535,0.2599999904632568,1,-5.420000076293945,-0.1299999952316284,-4.519999980926514,34,6.159999847412109,0.3499999940395355,5.380000114440918,0,2.059999942779541,-0.0599999986588954,-0.0199999995529651,0,0.7400000095367432,0.0,-7.21999979019165,52,-3.3399999141693115,2.2699999809265137,0.5400000214576721,0.2545104026794433,0.2610516548156738,0.0135918026492557,-0.0141086025265939,0.4211036981636059,0.0,0.0,1.0,0.0,0.0,0.0,1747914357.7833335,2
1747914390,431533794,-0.0143174668774008,0.0445429384708404,-0.2138641476631164,-0.9757423400878906,0.0074063860811293,0.0002935044467449,0.0,0.09649658203125,0.00567626953125,1.0030517578125,1,-4.349999904632568,0.0,0.6399999856948853,1,-5.420000076293945,0.0,-7.559999942779541,33,6.079999923706055,0.0,0.3199999928474426,0,1.9900000095367432,0.0,0.3000000119209289,0,0.7400000095367432,0.0,-6.429999828338623,51,-3.559999942779541,0.0,0.1800000071525573,0.2545104026794433,0.2610516548156738,0.0089268890830857,-0.0931836444397645,0.4311216915828541,0.0,0.0,1.0,0.0,0.0,0.0,1747914390.4315338,2
1747914390,490960304,-0.0143646821379661,0.0447220839560031,-0.2138631492853164,-0.9757336974143982,0.0073998225852847,-0.0175073482096195,0.0,0.09027099609375,0.0087890625,1.01202392578125,1,-4.349999904632568,0.0,0.6600000262260437,1,-5.420000076293945,0.0,-7.550000190734863,33,6.079999923706055,0.0,0.2000000029802322,0,1.9900000095367432,0.0,0.2800000011920929,0,0.7400000095367432,0.0,-6.480000019073486,51,-3.559999942779541,0.0,0.0599999986588954,0.2545104026794433,0.2610516548156738,0.0089426222190936,-0.0935542519556501,0.4311210716672328,0.2,0.0,1.0,0.0,0.0,0.0,1747914390.4909604,2
1747914390,555505292,-0.0144064128398895,0.0449152328073978,-0.2138601094484329,-0.9757248759269714,-0.0145904645323753,0.002396197989583,0.0,0.0966796875,0.00439453125,1.01513671875,1,-4.349999904632568,0.0,0.6399999856948853,1,-5.420000076293945,0.0,-7.590000152587891,33,6.079999923706055,-0.0099999997764825,0.1899999976158142,0,1.9900000095367432,0.0,0.2899999916553497,0,0.7400000095367432,0.0,-6.460000038146973,51,-3.559999942779541,-0.0099999997764825,0.0599999986588954,0.2545104026794433,0.2610516548156738,0.008941789876365,-0.0939498823517978,0.4311171737343745,0.2,0.0,1.0,0.0,0.0,0.0,1747914390.5555053,2
1747914390,611172179,-0.0144991530105471,0.0451994203031063,-0.2138559371232986,-0.9757112860679626,0.003217602148652,-0.0028374334797263,0.0,0.098876953125,0.00054931640625,0.99041748046875,1,-4.349999904632568,0.0,0.6700000166893005,1,-5.420000076293945,0.0,-7.590000152587891,33,6.079999923706055,0.0,0.1800000071525573,0,1.9900000095367432,0.0,0.2899999916553497,0,0.7400000095367432,0.0,-6.510000228881836,51,-3.559999942779541,-0.0099999997764825,0.050000000745058,0.2545104026794433,0.2610516548156738,0.0090019703309942,-0.0945454203382501,0.4311093175355037,0.2,0.0,1.0,0.0,0.0,0.0,1747914390.6111722,2
1747914391,891830321,-0.0168043226003646,0.0486660338938236,-0.217306911945343,-0.9747445583343506,0.0093193352222442,-0.0550943538546562,0.0,0.11627197265625,0.06903076171875,1.0301513671875,1,-4.349999904632568,-0.0099999997764825,0.7099999785423279,1,-5.420000076293945,0.0,-6.78000020980835,34,2.3299999237060547,3.0999999046325684,0.25,0,1.9900000095367432,0.0199999995529651,0.550000011920929,0,0.7400000095367432,0.0,-7.210000038146973,51,-0.8799999952316284,3.3299999237060547,-0.0399999991059303,0.2545104026794433,0.2610516548156738,0.0116702561945761,-0.1023559267300141,0.4381027416994498,0.2,0.0,1.0,0.0,0.0,0.0,1747914391.8918302,2
1747914391,951127714,-0.0175500437617301,0.0482378974556922,-0.2173658162355423,-0.9747395515441896,-0.0009153413120657,0.0005109505727887,0.0,0.0966796875,-0.02325439453125,1.0250244140625,1,-4.340000152587891,0.0199999995529651,0.209999993443489,1,-5.420000076293945,0.0099999997764825,-6.659999847412109,34,2.5199999809265137,3.1600000858306885,0.6600000262260437,0,1.9800000190734863,-0.0199999995529651,0.6299999952316284,0,0.7400000095367432,0.0,-6.960000038146973,51,-0.7099999785423279,3.049999952316284,0.7300000190734863,0.2545104026794433,0.2610516548156738,0.0133122743580992,-0.1018443002427633,0.438139352500801,0.2,0.0,1.0,0.0,0.0,0.0,1747914391.9511278,2
1747914391,991272078,-0.0170844923704862,0.0485834628343582,-0.2173984199762344,-0.9747233986854552,-0.0210802741348743,-0.0329864062368869,0.0,0.10198974609375,-0.01885986328125,0.99591064453125,1,-4.349999904632568,0.0,0.6600000262260437,1,-5.420000076293945,0.0099999997764825,-6.550000190734863,34,2.650000095367432,3.109999895095825,0.1700000017881393,0,1.9900000095367432,0.0599999986588954,0.4699999988079071,0,0.7400000095367432,-0.0099999997764825,-7.409999847412109,51,-0.5699999928474426,3.3299999237060547,-0.0900000035762786,0.2545104026794433,0.2610516548156738,0.0122457209230585,-0.1023175911563427,0.4382615853041619,0.2,0.0,1.0,0.0,0.0,0.0,1747914391.991272,2
1747914392,51051277,-0.0176475197076797,0.048615351319313,-0.2173934280872345,-0.9747129082679749,0.0283878836780786,0.0068924911320209,0.0,0.0941162109375,0.04010009765625,1.0400390625,1,-4.340000152587891,0.0099999997764825,0.2899999916553497,1,-5.420000076293945,0.0,-6.519999980926514,34,2.8299999237060547,3.150000095367432,0.5600000023841858,0,1.9800000190734863,-0.0299999993294477,0.7200000286102295,0,0.7400000095367432,0.0,-7.090000152587891,51,-0.3899999856948852,3.009999990463257,0.6000000238418579,0.2545104026794433,0.2610516548156738,0.0133357717442678,-0.1026249747982428,0.4381985440371824,0.2,0.0,1.0,0.0,0.0,0.0,1747914392.0510514,2
1747914392,112038081,-0.017366861924529,0.0484574548900127,-0.2174551486968994,-0.974712073802948,0.0312464460730552,0.0069826105609536,0.0,0.0904541015625,-0.0150146484375,1.01385498046875,1,-4.349999904632568,-0.0099999997764825,0.5400000214576721,1,-5.420000076293945,0.0299999993294477,-6.53000020980835,34,2.950000047683716,3.0799999237060547,0.4600000083446502,0,1.9900000095367432,0.0099999997764825,0.5400000214576721,0,0.7400000095367432,-0.0099999997764825,-7.320000171661377,51,-0.2599999904632568,3.140000104904175,0.270000010728836,0.2545104026794433,0.2610516548156738,0.0128481187868678,-0.1021949509868153,0.4383473890547067,0.2,0.0,1.0,0.0,0.0,0.0,1747914392.112038,2
1747914392,151292527,-0.0176973156630992,0.0479948781430721,-0.2177434414625167,-0.9746646285057068,0.0250920001417398,-0.0002575940452516,0.0202403478324413,0.09649658203125,0.1025390625,0.99847412109375,1,-4.349999904632568,0.0,0.3499999940395355,1,-5.420000076293945,0.0,-6.320000171661377,34,3.130000114440918,2.950000047683716,0.5400000214576721,0,1.9900000095367432,0.0,0.6399999856948853,0,0.7400000095367432,0.0,-7.340000152587891,51,-0.0700000002980232,3.150000095367432,0.2000000029802322,0.2545104026794433,0.2610516548156738,0.0136674359336784,-0.1014386433690294,0.4388948222112865,0.2,0.0,1.0,0.0,0.0,0.0,1747914392.1512926,2
1747914392,211339214,-0.01809923350811,0.0479270406067371,-0.2180380523204803,-0.97459477186203,-0.0020312359556555,0.0154973305761814,0.0,0.08258056640625,-0.05126953125,1.00616455078125,1,-4.349999904632568,-0.0099999997764825,0.3700000047683716,1,-5.420000076293945,0.0199999995529651,-6.239999771118164,34,3.309999942779541,2.970000028610229,0.5199999809265137,0,1.9800000190734863,-0.0199999995529651,0.6200000047683716,0,0.7400000095367432,-0.0199999995529651,-7.360000133514404,52,-6.179999828338623,3.009999990463257,0.5,0.2545104026794433,0.2610516548156738,0.0144538689596256,-0.1014856457684665,0.4394609039926319,0.2,0.0,1.0,0.0,0.0,0.0,1747914392.2113392,2
1747914392,256048485,-0.0173611436039209,0.0476074256002903,-0.2180591225624084,-0.9746190905570984,-0.0263115614652633,-0.0189856514334678,0.0,0.1029052734375,0.0135498046875,1.037841796875,1,-4.349999904632568,0.0099999997764825,0.4000000059604645,1,-5.420000076293945,0.0,-6.21999979019165,34,3.490000009536743,3.039999961853028,0.25,0,1.9900000095367432,0.0099999997764825,0.6700000166893005,0,0.7300000190734863,0.0,-7.480000019073486,52,-5.989999771118164,3.0999999046325684,0.209999993443489,0.2545104026794433,0.2615546584129333,0.0131452947268264,-0.1005390138725012,0.4395640973457375,0.2,0.0,1.0,0.0,0.0,0.0,1747914392.2560484,2
1747914392,310920258,-0.0175676755607128,0.0478141121566295,-0.2180234044790268,-0.9746132493019104,0.0146967191249132,0.0197880566120147,-0.0013476535677909,0.0838623046875,0.00347900390625,1.01751708984375,1,-4.349999904632568,0.0099999997764825,0.4000000059604645,1,-5.420000076293945,0.0,-6.349999904632568,34,3.549999952316284,3.039999961853028,0.209999993443489,0,1.9800000190734863,-0.0199999995529651,0.7799999713897705,0,0.7300000190734863,-0.0099999997764825,-7.349999904632568,52,-5.929999828338623,2.990000009536743,0.2599999904632568,0.2545104026794433,0.2615546584129333,0.0134632476181146,-0.1010326590521256,0.439477508086035,0.2,0.0,1.0,0.0,0.0,0.0,1747914392.3109202,2
