orientation_x,orientation_y,orientation_z,orientation_w,angular_velocity_x,angular_velocity_y,angular_velocity_z,linear_acceleration_x,linear_acceleration_y,linear_acceleration_z,left_hip_enc_rev,left_hip_pos,left_hip_vel,left_hip_iq,left_knee_enc_rev,left_knee_pos,left_knee_vel,left_knee_iq,left_wheel_enc_rev,left_wheel_pos,left_wheel_vel,left_wheel_iq,right_hip_enc_rev,right_hip_pos,right_hip_vel,right_hip_iq,right_knee_enc_rev,right_knee_pos,right_knee_vel,right_knee_iq,right_wheel_enc_rev,right_wheel_pos,right_wheel_vel,right_wheel_iq,left_leg_length,right_leg_length,roll,pitch,yaw,cmd_forward,cmd_left,cmd_up,cmd_roll,cmd_pitch,cmd_leg_split,source_file,Unified_Timestamp,label
0.0107840178534388,0.0153843658044934,0.7538657188415527,-0.6567597985267639,-0.0010301398579031,-0.0025698416866362,0.0,0.03387451171875,-0.00018310546875,1.0235595703125,1,-4.269999980926514,-0.0099999997764825,0.2800000011920929,1,-5.429999828338623,0.0,-6.25,25,5.130000114440918,0.0700000002980232,0.0900000035762786,0,2.0799999237060547,0.0099999997764825,0.3600000143051147,0,0.6899999976158142,0.0,-6.599999904632568,22,-1.5399999618530271,0.1299999952316284,0.0599999986588954,0.2550908327102661,0.2635011374950409,0.0090366067451604,-0.0364751561595891,-1.7084220381616253,-0.13,0.0,1.0,0.0,0.0,0.0,backward.csv,1742551581.9738874,0
0.0109754856675863,0.0157174337655305,0.753856897354126,-0.6567589640617371,-0.0114640947431325,-0.0256088487803936,0.0,0.024169921875,0.01885986328125,1.03619384765625,1,-4.269999980926514,-0.0099999997764825,0.3400000035762787,1,-5.429999828338623,0.0,-6.260000228881836,25,5.130000114440918,0.050000000745058,0.0700000002980232,0,2.0799999237060547,0.0099999997764825,0.3499999940395355,0,0.6899999976158142,0.0,-6.659999847412109,22,-1.5299999713897705,0.1700000017881393,-0.0199999995529651,0.2550908327102661,0.2635011374950409,0.0092874539234183,-0.0372016025028494,-1.7084197830686387,-0.61,0.0,1.0,0.0,0.0,0.0,backward.csv,1742551582.0337355,0
0.0108734741806983,0.0156616084277629,0.7538320422172546,-0.6567906141281128,-0.0135543104261159,-0.0014818548224866,0.0,0.02069091796875,0.02984619140625,0.98638916015625,1,-4.269999980926514,0.0199999995529651,0.1599999964237213,1,-5.429999828338623,0.0,-6.019999980926514,25,5.139999866485596,0.1400000005960464,0.5,0,2.0799999237060547,0.0299999993294477,0.3199999928474426,0,0.6899999976158142,0.0,-6.480000019073486,22,-1.5199999809265137,0.270000010728836,0.5199999809265137,0.2550908327102661,0.2635011374950409,0.0093357693727056,-0.0369747656599326,-1.7083393448289237,-1.0,0.0,1.0,0.0,0.0,0.0,backward.csv,1742551582.0540829,0
0.0127319684252142,0.0174154583364725,0.753653347492218,-0.6569181084632874,0.0126327266916632,-0.1637248247861862,0.0,0.01593017578125,0.0040283203125,1.03564453125,1,-4.260000228881836,0.1299999952316284,0.1500000059604644,1,-5.429999828338623,0.0,-5.869999885559082,25,5.170000076293945,0.5799999833106995,0.8899999856948853,0,2.0899999141693115,0.1000000014901161,0.4600000083446502,0,0.6899999976158142,0.0,-6.230000019073486,22,-1.4800000190734863,0.699999988079071,1.0299999713897705,0.2550908327102661,0.2635011374950409,0.0095312991056776,-0.0420844626904533,-1.7079401888854884,-1.0,0.0,1.0,0.0,0.0,0.0,backward.csv,1742551582.1337204,0
0.0158455818891525,0.0199481025338172,0.7535843253135681,-0.6568574905395508,0.0073967389762401,-0.2527365982532501,0.0,0.0216064453125,0.00604248046875,0.98272705078125,1,-4.230000019073486,0.3799999952316284,0.3799999952316284,1,-5.429999828338623,0.0,-6.260000228881836,25,5.300000190734863,1.7599999904632568,-0.0799999982118606,0,2.119999885559082,0.3799999952316284,0.5600000023841858,0,0.6899999976158142,0.0,-6.559999942779541,22,-1.340000033378601,1.9600000381469729,-0.0099999997764825,0.2550908327102661,0.2635011374950409,0.0092603321812217,-0.050109052731297,-1.707972285229506,-1.0,0.0,1.0,0.0,0.0,0.0,backward.csv,1742551582.173909,0
0.0208682864904403,0.0242380667477846,0.7534692287445068,-0.6567047834396362,0.0157743189483881,-0.262161374092102,0.0,0.005859375,-0.0194091796875,1.03070068359375,1,-4.210000038146973,0.5199999809265137,0.5600000023841858,1,-5.429999828338623,0.0,-6.380000114440918,25,5.409999847412109,2.3299999237060547,-0.6499999761581421,0,2.140000104904175,0.5400000214576721,0.5699999928474426,0,0.6899999976158142,0.0,-6.860000133514404,22,-1.2100000381469729,2.5899999141693115,-0.7200000286102295,0.2550908327102661,0.2635011374950409,0.0091351040606919,-0.0633240445989858,-1.7081084874488852,-1.0,0.0,1.0,0.0,0.0,0.0,backward.csv,1742551582.2337623,0
0.0238238126039505,0.0267915967851877,0.7533817291259766,-0.6566053628921509,0.0126327266916632,-0.210848718881607,0.0,-0.01483154296875,-0.005859375,0.9664306640625,1,-4.170000076293945,0.5899999737739563,0.7300000190734863,1,-5.429999828338623,0.0,-6.599999904632568,25,5.559999942779541,2.3299999237060547,-1.190000057220459,0,2.180000066757202,0.6100000143051147,0.7200000286102295,0,0.6899999976158142,0.0,-7.130000114440918,22,-1.059999942779541,2.559999942779541,-1.3300000429153442,0.2550908327102661,0.2635011374950409,0.0091060709550686,-0.0711398523710172,-1.7081781079354437,-1.0,0.0,1.0,0.0,0.0,0.0,backward.csv,1742551582.2781472,0
0.0269564241170883,0.0295815225690603,0.7532846927642822,-0.6564757823944092,-0.0114528154954314,-0.1867631673812866,0.0,-0.02471923828125,0.00640869140625,1.0308837890625,1,-4.139999866485596,0.6000000238418579,0.7599999904632568,1,-5.429999828338623,0.0,-6.820000171661377,25,5.630000114440918,1.9800000190734863,-1.840000033378601,0,2.2100000381469727,0.6000000238418579,0.8600000143051147,0,0.6899999976158142,0.0,-7.300000190734863,22,-0.9800000190734864,2.140000104904175,-1.870000004768372,0.2550908327102661,0.2635011374950409,0.0092008619074664,-0.0768547729712366,-1.708257640182659,-1.0,0.0,1.0,0.0,0.0,0.0,backward.csv,1742551582.3338594,0
0.0283843670040369,0.0307572521269321,0.7532343864440918,-0.6564193367958069,0.0021607514936476,-0.1260257214307785,0.0,-0.04248046875,0.002197265625,1.03765869140625,1,-4.119999885559082,0.5,0.959999978542328,1,-5.429999828338623,0.0099999997764825,-6.809999942779541,25,5.670000076293945,0.9399999976158142,-1.870000004768372,0,2.240000009536743,0.550000011920929,0.7200000286102295,0,0.6899999976158142,0.0,-7.53000020980835,22,-0.9300000071525574,1.159999966621399,-2.119999885559082,0.2550908327102661,0.2635011374950409,0.0091023835673295,-0.083235550820045,-1.7083201174747755,-1.0,0.0,1.0,0.0,0.0,0.0,backward.csv,1742551582.374039,0
0.0289914850145578,0.0316022895276546,0.7532259225845337,-0.6563623547554016,-0.0198016446083784,-0.0933568924665451,0.0,-0.03277587890625,0.006591796875,1.01495361328125,1,-4.099999904632568,0.4900000095367431,0.7699999809265137,1,-5.429999828338623,0.0,-7.010000228881836,25,5.659999847412109,0.270000010728836,-2.309999942779541,0,2.259999990463257,0.4900000095367431,0.7400000095367432,0,0.6899999976158142,0.0,-7.559999942779541,22,-0.9399999976158142,0.3100000023841858,-2.430000066757202,0.2550908327102661,0.2635011374950409,0.0093831129403049,-0.0847231257359215,-1.7083894770664414,-1.0,0.0,1.0,0.0,0.0,0.0,backward.csv,1742551582.4338448,0
0.0297053027898073,0.0322297513484954,0.7532140612602234,-0.6563135385513306,0.0042748069390654,-0.0063107595779001,-0.0165897719562053,-0.04486083984375,-0.00897216796875,1.08489990234375,1,-4.079999923706055,0.3600000143051147,0.9900000095367432,1,-5.429999828338623,0.0399999991059303,-7.71999979019165,25,5.559999942779541,-1.2200000286102295,-3.869999885559082,0,2.2799999713897705,0.4000000059604645,0.7599999904632568,0,0.6899999976158142,0.0,-8.359999656677246,22,-1.0399999618530271,-1.159999966621399,-4.070000171661377,0.2550908327102661,0.2635011374950409,0.0095963980470126,-0.0871648815739522,-1.708492497423818,-1.0,0.0,1.0,0.0,0.0,0.0,backward.csv,1742551582.47433,0
0.0277658980339765,0.030483029782772,0.7534131407737732,-0.656253457069397,0.0409188568592071,0.1342658400535583,-0.0197330899536609,-0.05841064453125,0.015380859375,1.078857421875,1,-4.070000171661377,0.1899999976158142,0.9200000166893004,1,-5.429999828338623,0.0199999995529651,-7.53000020980835,25,5.400000095367432,-2.75,-3.490000009536743,0,2.289999961853028,0.2199999988079071,0.6800000071525574,0,0.6899999976158142,0.0,-8.25,22,-1.2000000476837158,-2.799999952316284,-3.680000066757202,0.2550908327102661,0.2635011374950409,0.0094507373636098,-0.0843692148769475,-1.7085878205862155,-1.0,0.0,1.0,0.0,0.0,0.0,backward.csv,1742551582.533726,0
0.0243464261293411,0.0275892857462167,0.7537279725074768,-0.6561555862426758,0.0293996855616569,0.1730121523141861,-0.0406770333647728,-0.071044921875,0.00091552734375,1.05450439453125,1,-4.079999923706055,0.0,0.699999988079071,1,-5.429999828338623,0.0,-7.360000133514404,25,5.059999942779541,-4.889999866485596,-2.990000009536743,0,2.2799999713897705,0.0,0.4199999868869781,0,0.6899999976158142,0.0,-8.180000305175781,22,-1.559999942779541,-5.170000076293945,-3.069999933242798,0.2550908327102661,0.2635011374950409,0.009665417969287,-0.0729716361147741,-1.7093407022417275,-1.0,0.0,1.0,0.0,0.0,0.0,backward.csv,1742551582.5737846,0
0.019123151898384,0.0228228718042373,0.7547075748443604,-0.6553852558135986,-0.0030634372960776,0.2505047619342804,-0.0228746756911277,-0.13165283203125,0.0791015625,1.13580322265625,1,-4.090000152587891,-0.1500000059604644,0.8899999856948853,1,-5.429999828338623,0.0,-7.769999980926514,25,4.78000020980835,-6.199999809265137,-3.829999923706055,0,2.2699999809265137,-0.1599999964237213,0.3700000047683716,0,0.6899999976158142,0.0099999997764825,-8.680000305175781,22,-1.870000004768372,-6.630000114440918,-3.950000047683716,0.2550908327102661,0.2635011374950409,0.0095740493526146,-0.0637527526005817,-1.7108566076069445,-1.0,0.0,1.0,0.0,0.0,0.0,backward.csv,1742551582.633635,0
0.0148326838389039,0.0189546439796686,0.7550077438354492,-0.6552740931510925,-0.0219129920005798,0.2253720313310623,-0.0103083103895187,-0.0838623046875,0.0355224609375,0.9814453125,1,-4.119999885559082,-0.3600000143051147,0.3000000119209289,1,-5.429999828338623,-0.0399999991059303,-6.840000152587891,25,4.25,-8.079999923706055,-1.2999999523162842,0,2.240000009536743,-0.4000000059604645,0.1500000059604644,0,0.6899999976158142,-0.0199999995529651,-7.300000190734863,22,-2.430000066757202,-8.600000381469727,-1.3700000047683716,0.2550908327102661,0.2635011374950409,0.0091932514317348,-0.0472561429340965,-1.7122165238792002,-1.0,0.0,1.0,0.0,0.0,0.0,backward.csv,1742551582.6739016,0
0.0112536828964948,0.0153496358543634,0.7554007768630981,-0.654986560344696,-0.0565384067595005,0.0641963928937912,-0.037533663213253,-0.03497314453125,-0.01959228515625,1.0631103515625,1,-4.130000114440918,-0.3400000035762787,0.25,1,-5.429999828338623,0.0,-7.070000171661377,25,3.910000085830689,-8.329999923706055,-1.8899999856948853,0,2.220000028610229,-0.3600000143051147,0.1000000014901161,0,0.6899999976158142,-0.0099999997764825,-7.440000057220459,22,-2.789999961853028,-8.859999656677246,-1.6200000047683716,0.2550908327102661,0.2635011374950409,0.0086487574468322,-0.0391780737032404,-1.7124894101736352,-1.0,0.0,1.0,0.0,0.0,0.0,backward.csv,1742551582.7336538,0
0.0108220018446445,0.0149533208459615,0.7556617259979248,-0.6547019481658936,0.0398071147501468,0.0328036285936832,-0.0406755656003952,-0.0421142578125,0.02508544921875,1.0228271484375,1,-4.150000095367432,-0.3899999856948852,0.5099999904632568,1,-5.429999828338623,-0.0099999997764825,-6.690000057220459,25,3.369999885559082,-8.800000190734863,-1.3799999952316284,0,2.200000047683716,-0.3899999856948852,0.1000000014901161,0,0.6899999976158142,0.0,-7.420000076293945,22,-3.3499999046325684,-9.229999542236328,-1.2200000286102295,0.2550908327102661,0.2635011374950409,0.0084344807687549,-0.0359432205291495,-1.7138725628444522,-1.0,0.0,1.0,0.0,0.0,0.0,backward.csv,1742551582.7537415,0
0.0096170166507363,0.014098591171205,0.7559084892272949,-0.6544548273086548,-0.0186659023165702,-0.0264665968716144,0.0,-0.00567626953125,-0.03717041015625,1.07373046875,1,-4.170000076293945,-0.3300000131130218,0.3600000143051147,1,-5.429999828338623,0.0,-6.929999828338623,25,3.009999990463257,-8.90999984741211,-1.4500000476837158,0,2.190000057220459,-0.3600000143051147,0.25,0,0.6899999976158142,0.0,-7.28000020980835,22,-3.740000009536743,-9.350000381469728,-1.2999999523162842,0.2550908327102661,0.2635011374950409,0.0088417866726794,-0.0331778489463575,-1.7145593394117338,-1.0,0.0,1.0,0.0,0.0,0.0,backward.csv,1742551582.8336806,0
0.0096701113507151,0.0135756600648164,0.7559394836425781,-0.6544293165206909,-0.0291282050311565,-0.0116332797333598,0.0,-0.0216064453125,-0.00054931640625,1.026123046875,1,-4.179999828338623,-0.2599999904632568,0.4399999976158142,1,-5.429999828338623,0.0,-7.039999961853027,25,2.450000047683716,-9.170000076293944,-1.5499999523162842,0,2.1700000762939453,-0.2599999904632568,0.1000000014901161,0,0.6899999976158142,0.0,-7.329999923706055,22,-4.300000190734863,-9.34000015258789,-1.600000023841858,0.2550908327102661,0.2635011374950409,0.0078721575885692,-0.0323943232651683,-1.7146244942127564,-1.0,0.0,1.0,0.0,0.0,0.0,backward.csv,1742551582.873677,0
0.0093476111069321,0.0126897832378745,0.7559782862663269,-0.6544070243835449,-0.021699383854866,0.0283618010580539,0.0,0.00238037109375,0.0230712890625,0.9986572265625,1,-4.190000057220459,-0.2599999904632568,0.550000011920929,1,-5.429999828338623,0.0,-6.900000095367432,25,2.059999942779541,-9.520000457763672,-1.25,0,2.1700000762939453,-0.209999993443489,0.0099999997764825,0,0.6899999976158142,0.0099999997764825,-7.440000057220459,22,-4.690000057220459,-9.5,-1.4199999570846558,0.2550908327102661,0.2635011374950409,0.0069554599099651,-0.0307465927962954,-1.71468851294433,-1.0,0.0,1.0,0.0,0.0,0.0,backward.csv,1742551582.9337149,0
0.0089280912652611,0.01205166708678,0.7559716701507568,-0.654432475566864,0.034838318824768,0.0462486743927001,0.0,-0.00091552734375,-0.01776123046875,1.048095703125,1,-4.199999809265137,-0.209999993443489,0.3100000023841858,1,-5.429999828338623,0.0,-7.019999980926514,25,1.4600000381469729,-9.869999885559082,-1.149999976158142,0,2.150000095367432,-0.2399999946355819,0.1899999976158142,0,0.6899999976158142,0.0,-7.010000228881836,22,-5.289999961853027,-9.960000038146973,-0.9700000286102296,0.2550908327102661,0.2635011374950409,0.006538620682117,-0.0292769550121579,-1.714630001684288,-1.0,0.0,1.0,0.0,0.0,0.0,backward.csv,1742551582.9738033,0
0.0081539116799831,0.0112306531518697,0.7559014558792114,-0.6545383334159851,-0.0018768836744129,0.0243546683341264,0.0,-0.005859375,0.028564453125,1.02447509765625,1,-4.210000038146973,-0.1400000005960464,0.1199999973177909,1,-5.429999828338623,0.0,-7.210000038146973,25,1.059999942779541,-9.960000038146973,-1.6200000047683716,0,2.140000104904175,-0.2199999988079071,0.3499999940395355,0,0.6899999976158142,0.0,-6.940000057220459,22,-5.699999809265137,-10.079999923706056,-1.149999976158142,0.2550908327102661,0.2635011374950409,0.0063522364588225,-0.0276183822845725,-1.7144053412978442,-1.0,0.0,1.0,0.0,0.0,0.0,backward.csv,1742551583.03381,0
0.0073247305117547,0.0106945848092436,0.755858838558197,-0.6546063423156738,-0.0259441845118999,0.0495623834431171,0.0112554170191288,0.01373291015625,0.05072021484375,0.9173583984375,1,-4.21999979019165,-0.1500000059604644,0.1599999964237213,1,-5.429999828338623,-0.0099999997764825,-6.980000019073486,25,0.4300000071525574,-10.3100004196167,-0.9900000095367432,0,2.130000114440918,-0.1599999964237213,0.1299999952316284,0,0.6899999976158142,0.0,-6.849999904632568,21,-0.0199999995529651,-10.09000015258789,-0.7799999713897705,0.2550908327102661,0.2635011374950409,0.006579679000719,-0.0250770389168122,-1.7142062319545008,-1.0,0.0,1.0,0.0,0.0,0.0,backward.csv,1742551583.0739884,0
0.0061568873934447,0.0095944050699472,0.7554118037223816,-0.6551512479782104,-0.0007293063681572,0.0506458207964897,0.0426691621541976,0.02783203125,-0.012451171875,0.988037109375,1,-4.21999979019165,-0.1299999952316284,0.1700000017881393,1,-5.429999828338623,0.0,-7.079999923706055,25,0.0099999997764825,-10.470000267028809,-0.9399999976158142,0,2.130000114440918,-0.1099999994039535,0.0399999991059303,0,0.6899999976158142,0.0,-6.900000095367432,21,-0.4300000071525574,-10.109999656677246,-1.059999942779541,0.2550908327102661,0.2635011374950409,0.0066109539072832,-0.0229008546043287,-1.7134673603058033,-1.0,0.0,1.0,0.0,0.0,0.0,backward.csv,1742551583.133728,0
0.0051806322298944,0.0084802191704511,0.7548667788505554,-0.6558029651641846,-0.3442206382751465,0.0516940020024776,0.0,0.07452392578125,0.05072021484375,1.20318603515625,1,-4.230000019073486,-0.0599999986588954,-0.4300000071525574,1,-5.409999847412109,0.2599999904632568,-8.869999885559082,24,5.659999847412109,-10.420000076293944,-2.430000066757202,0,2.130000114440918,-0.1000000014901161,0.4000000059604645,0,0.699999988079071,0.2000000029802322,-7.590000152587891,21,-1.0499999523162842,-10.25,-2.1700000762939453,0.2539235949516296,0.2630243599414825,0.0060090380119647,-0.0189452133678565,-1.7110725247960303,-1.0,0.0,1.0,0.0,0.0,0.0,backward.csv,1742551583.1738982,0
0.0041320296004414,0.0086302896961569,0.7545824646949768,-0.6561354994773865,0.1699435710906982,0.1428227871656417,0.0332446545362472,-0.03387451171875,-0.05438232421875,0.9891357421875,1,-4.230000019073486,-0.1500000059604644,1.0199999809265137,1,-5.440000057220459,-0.2199999988079071,-7.159999847412109,24,5.190000057220459,-11.210000038146973,-0.9200000166893004,0,2.119999885559082,-0.0900000035762786,0.2899999916553497,0,0.6800000071525574,-0.1199999973177909,-6.650000095367432,21,-1.4700000286102295,-10.579999923706056,-1.5,0.2556649148464203,0.2639712989330292,0.0070733784715134,-0.0197899166861093,-1.7109143557690898,-1.0,0.0,1.0,0.0,0.0,0.0,backward.csv,1742551583.233783,0
0.0028594830073416,0.0078213885426521,0.7541226148605347,-0.6566808223724365,0.022245729342103,-0.0237024221569299,0.0049711242318153,0.04559326171875,-0.0091552734375,0.97137451171875,1,-4.239999771118164,-0.0599999986588954,-0.1400000005960464,1,-5.429999828338623,-0.0599999986588954,-6.389999866485596,24,4.53000020980835,-10.859999656677246,-0.6600000262260437,0,2.109999895095825,-0.1199999973177909,0.0599999986588954,0,0.6899999976158142,-0.0099999997764825,-6.980000019073486,21,-2.140000104904175,-10.770000457763672,-0.5899999737739563,0.2550908327102661,0.2635011374950409,0.0080419787404455,-0.0145856304796934,-1.7087725145430397,-1.0,0.0,1.0,0.0,0.0,0.0,backward.csv,1742551583.2738163,0
0.0042739412747323,0.0092208050191402,0.7540952563285828,-0.6566864848136902,0.0076648755930364,-0.025916464626789,0.0,0.0260009765625,0.01318359375,1.04296875,1,-4.239999771118164,-0.0700000002980232,0.4099999964237213,1,-5.429999828338623,-0.0199999995529651,-7.010000228881836,24,4.110000133514404,-10.65999984741211,-1.4199999570846558,0,2.109999895095825,-0.1099999994039535,0.3799999952316284,0,0.6899999976158142,0.0199999995529651,-7.190000057220459,21,-2.559999942779541,-10.630000114440918,-1.5399999618530271,0.2550908327102661,0.2635011374950409,0.0083178528221723,-0.0176462681606322,-1.7087380758955557,-1.0,0.0,1.0,0.0,0.0,0.0,backward.csv,1742551583.3337605,0
0.0043054334819316,0.0092324540019035,0.7540928721427917,-0.6566888689994812,-0.0080618169158697,-0.0091575542464852,0.0,0.02398681640625,0.01007080078125,0.95123291015625,1,-4.25,-0.1099999994039535,0.1000000014901161,1,-5.440000057220459,-0.0199999995529651,-6.579999923706055,24,3.4600000381469727,-10.84000015258789,-0.1800000071525573,0,2.0999999046325684,-0.1400000005960464,0.1700000017881393,0,0.6899999976158142,-0.0099999997764825,-6.570000171661377,21,-3.220000028610229,-10.899999618530272,-0.1000000014901161,0.2556649148464203,0.2635011374950409,0.0082711231145869,-0.0186201689035678,-1.7087398010786732,-1.0,0.0,1.0,0.0,0.0,0.0,backward.csv,1742551583.37381,0
0.0052867433987557,0.0100386841222643,0.754066526889801,-0.656700074672699,0.0265106335282325,-0.0490264818072319,0.0,0.02398681640625,-0.0201416015625,0.92742919921875,1,-4.25,-0.0399999991059303,0.0299999993294477,1,-5.429999828338623,0.0,-7.090000152587891,24,3.039999961853028,-10.630000114440918,-0.9900000095367432,0,2.0899999141693115,-0.1000000014901161,0.3400000035762787,0,0.6899999976158142,0.0099999997764825,-6.610000133514404,21,-3.650000095367432,-10.760000228881836,-0.7699999809265137,0.2550908327102661,0.2635011374950409,0.0080484413022788,-0.0198020695094448,-1.7086867666782513,-1.0,0.0,1.0,0.0,0.0,0.0,backward.csv,1742551583.4337406,0
0.0057116798125207,0.0102868909016251,0.7540605664253235,-0.6566994190216064,-0.0258124936372041,-0.0354387797415256,0.0,0.0545654296875,0.01739501953125,1.0224609375,1,-4.260000228881836,-0.0799999982118606,0.1099999994039535,1,-5.440000057220459,-0.0199999995529651,-6.960000038146973,24,2.369999885559082,-11.020000457763672,-0.2899999916553497,0,2.0899999141693115,-0.1199999973177909,0.25,0,0.6899999976158142,0.0099999997764825,-6.489999771118164,21,-4.300000190734863,-10.93000030517578,-0.4000000059604645,0.2556649148464203,0.2635011374950409,0.0080142114258442,-0.0221265009986885,-1.7086929174196956,-1.0,0.0,1.0,0.0,0.0,0.0,backward.csv,1742551583.4538946,0
0.0061672101728618,0.0097573837265372,0.7536129951477051,-0.6572170853614807,-0.0163585450500249,-0.0176896974444389,0.0280088707804679,0.03533935546875,-0.0377197265625,0.963134765625,1,-4.260000228881836,-0.0399999991059303,-0.0099999997764825,1,-5.440000057220459,-0.0099999997764825,-7.230000019073486,24,1.9299999475479128,-11.0600004196167,-0.5600000023841858,0,2.0899999141693115,-0.0700000002980232,0.3700000047683716,0,0.6899999976158142,0.0,-6.510000228881836,21,-4.739999771118164,-10.899999618530272,-0.5600000023841858,0.2556649148464203,0.2635011374950409,0.0071445724712745,-0.0220835522717258,-1.7079568141699,-1.0,0.0,1.0,0.0,0.0,0.0,backward.csv,1742551583.5341308,0
0.0061135962605476,0.009616763330996,0.7532736659049988,-0.6576085090637207,-0.0038806453812867,0.0492881871759891,0.0321998819708824,0.0325927734375,-0.01593017578125,1.03509521484375,1,-4.260000228881836,-0.0399999991059303,0.0,1,-5.440000057220459,0.0,-7.050000190734863,24,1.25,-11.239999771118164,-0.5600000023841858,0,2.0799999237060547,-0.0599999986588954,0.4300000071525574,0,0.6899999976158142,0.0,-6.619999885559082,21,-5.400000095367432,-10.970000267028809,-0.4900000095367431,0.2556649148464203,0.2635011374950409,0.0064489888196572,-0.0218602939567668,-1.706270001990156,-1.0,0.0,1.0,0.0,0.0,0.0,backward.csv,1742551583.5738297,0
0.0054199225269258,0.0091478144749999,0.7530500888824463,-0.6578772068023682,0.0264186542481184,0.0314303934574127,0.0,0.03662109375,0.028564453125,1.00616455078125,1,-4.260000228881836,-0.0099999997764825,-0.0399999991059303,1,-5.440000057220459,0.0,-7.070000171661377,24,0.800000011920929,-11.25,-0.5199999809265137,0,2.0799999237060547,-0.0199999995529651,0.3700000047683716,0,0.6899999976158142,0.0,-6.579999923706055,21,-5.829999923706055,-10.920000076293944,-0.4900000095367431,0.2556649148464203,0.2635011374950409,0.0066476432582448,-0.0202005973801102,-1.7055676026975386,-1.0,0.0,1.0,0.0,0.0,0.0,backward.csv,1742551583.6138,0
0.0046338126994669,0.0087647000327706,0.7527654767036438,-0.6582141518592834,0.024350706487894,0.0585388503968715,0.0018332861363887,0.041748046875,0.00091552734375,1.10394287109375,1,-4.260000228881836,-0.0099999997764825,-0.0199999995529651,1,-5.440000057220459,-0.0099999997764825,-7.25,24,0.1299999952316284,-11.260000228881836,-0.5799999833106995,0,2.0799999237060547,-0.0199999995529651,0.4099999964237213,0,0.6899999976158142,0.0,-6.429999828338623,20,-0.2000000029802322,-10.920000076293944,-0.3799999952316284,0.2556649148464203,0.2635011374950409,0.0070967209919809,-0.0185155055563937,-1.70468422296667,-1.0,0.0,1.0,0.0,0.0,0.0,backward.csv,1742551583.6742191,0
0.0035729934461414,0.0080622620880603,0.7524480819702148,-0.6585924625396729,0.0054290750995278,0.0332923866808414,0.0196376889944076,0.03936767578125,-0.00750732421875,1.125,1,-4.260000228881836,0.0,-0.1199999973177909,1,-5.440000057220459,0.0,-6.960000038146973,23,5.949999809265137,-11.31999969482422,-0.4099999964237213,0,2.0799999237060547,0.0,0.3100000023841858,0,0.6899999976158142,0.0099999997764825,-6.559999942779541,20,-0.6499999761581421,-11.010000228881836,-0.3700000047683716,0.2556649148464203,0.2635011374950409,0.0073899022625307,-0.017739136016129,-1.7043145046142425,-1.0,0.0,1.0,0.0,0.0,0.0,backward.csv,1742551583.7339416,0
0.0030686447862535,0.0078490925952792,0.7523747682571411,-0.6586814522743225,-0.0552969053387641,0.0049976408481597,0.0,0.04339599609375,0.12615966796875,1.021728515625,1,-4.260000228881836,0.0299999993294477,-0.0199999995529651,1,-5.449999809265137,-0.1199999973177909,-7.380000114440918,23,5.269999980926514,-11.40999984741211,-0.8299999833106995,0,2.0799999237060547,-0.0299999993294477,0.5600000023841858,0,0.6899999976158142,0.0199999995529651,-6.25,20,-1.3200000524520874,-11.18000030517578,-0.7699999809265137,0.2562325596809387,0.2635011374950409,0.0077693469613786,-0.0149582030439225,-1.7034586992999734,-1.0,0.0,1.0,0.0,0.0,0.0,backward.csv,1742551583.7738533,0
0.0022361387964338,0.0076809036545455,0.7523365616798401,-0.6587303876876831,-0.0078531811013817,0.0677844807505607,0.026963785290718,0.0263671875,0.043212890625,1.03106689453125,1,-4.260000228881836,-0.0299999993294477,0.1199999973177909,1,-5.460000038146973,-0.1700000017881393,-7.010000228881836,23,4.789999961853027,-11.6899995803833,0.4799999892711639,0,2.0799999237060547,-0.0399999991059303,-0.0599999986588954,0,0.6899999976158142,0.0299999993294477,-5.940000057220459,20,-1.7699999809265137,-11.25,0.0199999995529651,0.2567938268184662,0.2635011374950409,0.0086121135365327,-0.0134843558662614,-1.7033346304230583,-1.0,0.0,1.0,0.0,0.0,0.0,backward.csv,1742551583.813887,0
0.0018799203680828,0.0072812694124877,0.7516763210296631,-0.6594893336296082,-0.0352773927152156,-0.0014402428641915,0.0175423957407474,0.04742431640625,-0.01263427734375,1.07537841796875,1,-4.260000228881836,0.0399999991059303,-0.1199999973177909,1,-5.449999809265137,-0.0299999993294477,-7.25,23,4.130000114440918,-11.210000038146973,-0.6200000047683716,0,2.0799999237060547,-0.0199999995529651,0.550000011920929,0,0.6899999976158142,0.0,-6.46999979019165,20,-2.440000057220459,-11.149999618530272,-0.7099999785423279,0.2562325596809387,0.2635011374950409,0.0084674960858381,-0.0124303423844857,-1.701317265878115,-1.0,0.0,1.0,0.0,0.0,0.0,backward.csv,1742551583.8737555,0
0.0014808691339567,0.0074148545973002,0.7516558766365051,-0.6595122218132019,0.0536797083914279,0.0361324250698089,0.0,0.02398681640625,0.0087890625,0.93182373046875,1,-4.260000228881836,-0.0099999997764825,-0.050000000745058,1,-5.449999809265137,-0.0199999995529651,-7.050000190734863,23,3.680000066757202,-11.25,-0.1299999952316284,0,2.0799999237060547,-0.0299999993294477,0.3899999856948852,0,0.6899999976158142,0.0,-6.28000020980835,20,-2.890000104904175,-11.229999542236328,-0.209999993443489,0.2562325596809387,0.2635011374950409,0.008542649313891,-0.012639764681975,-1.7012646270577283,-1.0,0.0,1.0,0.0,0.0,0.0,backward.csv,1742551583.9337027,0
0.0009542538318783,0.0074019376188516,0.7516530156135559,-0.6595165729522705,-0.0259085893630981,-0.0068544084206223,0.0,0.0662841796875,0.01409912109375,1.0074462890625,1,-4.260000228881836,0.0199999995529651,-0.1099999994039535,1,-5.449999809265137,0.0,-6.510000228881836,23,3.0199999809265137,-11.06999969482422,-0.6000000238418579,0,2.0799999237060547,0.0199999995529651,0.3300000131130218,0,0.6899999976158142,0.0099999997764825,-6.929999828338623,20,-3.549999952316284,-11.09000015258789,-0.5899999737739563,0.2562325596809387,0.2635011374950409,0.009869464049253,-0.0111981706424479,-1.7012482463242835,-1.0,0.0,1.0,0.0,0.0,0.0,backward.csv,1742551583.9737115,0
0.0013724504970014,0.0073920963332057,0.751653790473938,-0.6595150828361511,0.0191759243607521,0.0537378937005996,0.0,0.04559326171875,-0.00970458984375,1.08270263671875,1,-4.260000228881836,-0.0199999995529651,0.0299999993294477,1,-5.449999809265137,-0.0099999997764825,-6.840000152587891,23,2.569999933242798,-11.220000267028809,-0.25,0,2.0799999237060547,-0.0299999993294477,0.5,0,0.6899999976158142,0.0199999995529651,-6.789999961853027,20,-4.010000228881836,-11.300000190734863,-0.4699999988079071,0.2562325596809387,0.2635011374950409,0.0097836493628989,-0.0126498316899813,-1.7012582846303437,-1.0,0.0,1.0,0.0,0.0,0.0,backward.csv,1742551584.0341077,0
0.0012662223307415,0.0071938573382794,0.7516574263572693,-0.6595132946968079,0.0044801123440265,0.0012650089338421,0.0,0.04156494140625,0.0208740234375,1.077392578125,1,-4.260000228881836,0.0099999997764825,-0.0099999997764825,1,-5.449999809265137,0.0099999997764825,-6.960000038146973,23,1.899999976158142,-11.109999656677246,-0.6299999952316284,0,2.0799999237060547,0.0199999995529651,0.3000000119209289,0,0.6899999976158142,0.0,-6.880000114440918,20,-4.679999828338623,-11.199999809265137,-0.6800000071525574,0.2562325596809387,0.2635011374950409,0.0091451726111971,-0.0113926663923069,-1.7012557894724338,-1.0,0.0,1.0,0.0,0.0,0.0,backward.csv,1742551584.0737784,0
0.0014926416333764,0.0076517355628311,0.7517993450164795,-0.6593458652496338,0.1060118600726127,0.0368406735360622,-0.0186912268400192,0.0208740234375,-0.03826904296875,1.02191162109375,1,-4.260000228881836,-0.0099999997764825,0.1000000014901161,1,-5.460000038146973,-0.0199999995529651,-6.889999866485596,23,1.440000057220459,-11.15999984741211,-0.6800000071525574,0,2.0799999237060547,-0.0099999997764825,0.3899999856948852,0,0.6899999976158142,-0.0199999995529651,-6.699999809265137,20,-5.150000095367432,-11.300000190734863,-0.7799999713897705,0.2567938268184662,0.2635011374950409,0.0090919484667952,-0.0122789545932719,-1.7015040051679469,-1.0,0.0,1.0,0.0,0.0,0.0,backward.csv,1742551584.1338377,0
0.0006264696712605,0.0072744963690638,0.7522311210632324,-0.6588588953018188,0.058829441666603,0.0106313843280076,-0.0302093848586082,0.0706787109375,0.0582275390625,0.94061279296875,1,-4.260000228881836,0.0399999991059303,-0.1599999964237213,1,-5.449999809265137,0.0,-6.659999847412109,23,0.7799999713897705,-10.90999984741211,-0.5400000214576721,0,2.0799999237060547,0.0399999991059303,0.0900000035762786,0,0.6899999976158142,-0.0099999997764825,-6.670000076293945,20,-5.820000171661377,-11.15999984741211,-0.3600000143051147,0.2562325596809387,0.2635011374950409,0.0101194284388292,-0.0105284277571945,-1.702997533196071,-1.0,0.0,1.0,0.0,0.0,0.0,backward.csv,1742551584.1745834,0
0.0011550222989171,0.0089638838544487,0.7530112266540527,-0.6579456925392151,-0.0205215420573949,0.0167151242494583,-0.0249741002917289,0.03350830078125,-0.010986328125,1.0330810546875,1,-4.260000228881836,0.0,0.3199999928474426,1,-5.460000038146973,-0.0099999997764825,-6.710000038146973,23,0.3499999940395355,-10.850000381469728,-0.8199999928474426,0,2.0799999237060547,0.0,0.3300000131130218,0,0.6899999976158142,0.0099999997764825,-7.130000114440918,20,-6.260000228881836,-11.079999923706056,-0.699999988079071,0.2567938268184662,0.2635011374950409,0.0109245646289638,-0.0115574857210644,-1.7039125963841082,-1.0,0.0,1.0,0.0,0.0,0.0,backward.csv,1742551584.2336504,0
0.0006934863049536,0.0087596923112869,0.7533121705055237,-0.6576045155525208,0.0224311165511608,0.0219188220798969,-0.019737958908081,0.0589599609375,0.03350830078125,1.05908203125,1,-4.260000228881836,0.0,-0.0299999993294477,1,-5.449999809265137,0.0199999995529651,-6.400000095367432,22,5.980000019073486,-10.869999885559082,-0.3000000119209289,0,2.0799999237060547,0.0199999995529651,0.0900000035762786,0,0.6899999976158142,0.0,-6.900000095367432,19,-0.6499999761581421,-11.109999656677246,-0.1500000059604644,0.2562325596809387,0.2635011374950409,0.0122867653732791,-0.0125659804849115,-1.706333486392506,-1.0,0.0,1.0,0.0,0.0,0.0,backward.csv,1742551584.2737155,0
0.001543731894344,0.0099638504907488,0.7536269426345825,-0.6572250723838806,0.0307300239801406,0.0049636578187346,-0.0155455991625785,0.052001953125,0.0252685546875,0.9891357421875,1,-4.260000228881836,0.0,0.2399999946355819,1,-5.449999809265137,0.0099999997764825,-6.710000038146973,22,5.550000190734863,-10.84000015258789,-1.2100000381469729,0,2.0799999237060547,0.0099999997764825,0.449999988079071,0,0.6899999976158142,0.0,-7.21999979019165,19,-1.090000033378601,-11.0600004196167,-1.0800000429153442,0.2562325596809387,0.2635011374950409,0.0124715649558544,-0.0147292734727152,-1.7070080518155937,-1.0,0.0,1.0,0.0,0.0,0.0,backward.csv,1742551584.3338108,0
0.0008613094105385,0.0099286576732993,0.7538611888885498,-0.6569581031799316,0.0495953224599361,0.0478525087237358,-0.0406779572367668,0.0289306640625,0.0318603515625,1.0272216796875,1,-4.260000228881836,-0.0099999997764825,-0.0099999997764825,1,-5.449999809265137,0.0,-6.019999980926514,22,4.880000114440918,-10.979999542236328,-0.1099999994039535,0,2.0799999237060547,0.0,0.0700000002980232,0,0.6899999976158142,0.0,-7.119999885559082,19,-1.7599999904632568,-11.170000076293944,0.0,0.2562325596809387,0.2635011374950409,0.0138398365853837,-0.0143445316269081,-1.708051502379887,-1.0,0.0,1.0,0.0,0.0,0.0,backward.csv,1742551584.373646,0
0.001041074283421,0.0115280663594603,0.7541979551315308,-0.6565451622009277,-0.0047644209116697,-0.0099725760519504,-0.0197320841252803,0.0413818359375,0.1080322265625,0.9532470703125,1,-4.260000228881836,0.0099999997764825,0.1599999964237213,1,-5.449999809265137,0.0,-6.349999904632568,22,4.460000038146973,-10.75,-1.0499999523162842,0,2.0799999237060547,0.0199999995529651,0.4000000059604645,0,0.6899999976158142,-0.0099999997764825,-7.400000095367432,19,-2.200000047683716,-11.029999732971191,-0.8700000047683716,0.2562325596809387,0.2635011374950409,0.0153150073305633,-0.0157000708128662,-1.7087627273419577,-1.0,0.0,1.0,0.0,0.0,0.0,backward.csv,1742551584.4336226,0
0.0004173604538664,0.0115562910214066,0.7542788982391357,-0.6564524173736572,-0.0307878535240888,0.0392029657959938,0.0,0.0274658203125,0.0106201171875,1.0689697265625,1,-4.260000228881836,-0.0099999997764825,-0.0199999995529651,1,-5.449999809265137,0.0,-5.639999866485596,22,3.799999952316284,-10.880000114440918,0.0099999997764825,0,2.0799999237060547,0.0,0.0900000035762786,0,0.6899999976158142,0.0,-7.260000228881836,19,-2.869999885559082,-11.149999618530272,0.1000000014901161,0.2562325596809387,0.2635011374950409,0.0168882896866933,-0.0158025804196354,-1.70939729429326,-1.0,0.0,1.0,0.0,0.0,0.0,backward.csv,1742551584.4736264,0
0.0008462574332952,0.0117009188979864,0.7542858123779297,-0.6564414501190186,0.0089888088405132,-0.0383865050971508,0.0,0.04486083984375,-0.01995849609375,1.0535888671875,1,-4.260000228881836,0.0099999997764825,0.2199999988079071,1,-5.449999809265137,0.0099999997764825,-6.039999961853027,22,3.380000114440918,-10.65999984741211,-0.9900000095367432,0,2.0799999237060547,0.0399999991059303,0.3300000131130218,0,0.6899999976158142,-0.0299999993294477,-7.489999771118164,19,-3.299999952316284,-10.890000343322754,-0.8100000023841858,0.2562325596809387,0.2635011374950409,0.0165436820073062,-0.0166393440950715,-1.7094270570064811,-1.0,0.0,1.0,0.0,0.0,0.0,backward.csv,1742551584.513681,0
0.0015733509790152,0.0115734273567795,0.7542928457260132,-0.6564342379570007,-0.0402148552238941,0.0233101285994052,0.0,0.0087890625,0.07415771484375,0.94573974609375,1,-4.260000228881836,-0.0199999995529651,0.1199999973177909,1,-5.449999809265137,-0.0099999997764825,-5.579999923706055,22,2.720000028610229,-10.9399995803833,-0.0599999986588954,0,2.0799999237060547,-0.0099999997764825,0.1700000017881393,0,0.6899999976158142,-0.0099999997764825,-7.300000190734863,19,-3.9600000381469727,-11.010000228881836,0.0099999997764825,0.2562325596809387,0.2635011374950409,0.0153968884190506,-0.0175688265053516,-1.7094447225770522,-1.0,0.0,1.0,0.0,0.0,0.0,backward.csv,1742551584.574095,0
0.0021757327485829,0.010965621098876,0.7542415857315063,-0.656501829624176,-0.031837560236454,-0.0312274638563394,0.0217451937496662,0.04669189453125,-0.0556640625,1.02557373046875,1,-4.260000228881836,0.0,0.1299999952316284,1,-5.449999809265137,0.0299999993294477,-5.960000038146973,22,2.289999961853028,-10.90999984741211,-0.4799999892711639,0,2.0799999237060547,0.0199999995529651,0.1599999964237213,0,0.6899999976158142,0.0,-7.389999866485596,19,-4.389999866485596,-10.829999923706056,-0.4399999976158142,0.2562325596809387,0.2635011374950409,0.0142080970064641,-0.0168949432322538,-1.70941506676335,-1.0,0.0,1.0,0.0,0.0,0.0,backward.csv,1742551584.6336274,0
0.0026475863996893,0.0107012772932648,0.7540426850318909,-0.6567329168319702,-0.0015579501632601,0.0074505414813756,0.0165117084980011,0.03460693359375,0.000732421875,0.941162109375,1,-4.269999980926514,-0.0299999993294477,0.0299999993294477,1,-5.449999809265137,0.0299999993294477,-5.639999866485596,22,1.6200000047683716,-11.109999656677246,-0.3000000119209289,0,2.0799999237060547,-0.0099999997764825,0.270000010728836,0,0.6899999976158142,-0.0199999995529651,-7.269999980926514,19,-5.050000190734863,-10.93000030517578,-0.209999993443489,0.2562325596809387,0.2635011374950409,0.0126633265475012,-0.0180495284463604,-1.7086446371682935,-1.0,0.0,1.0,0.0,0.0,0.0,backward.csv,1742551584.6739078,0
0.0024758609943091,0.0104567278176546,0.7538068890571594,-0.657008171081543,0.0026135449297726,0.0126448478549718,0.016512531787157,0.0296630859375,-0.006591796875,1.09808349609375,1,-4.269999980926514,-0.0299999993294477,0.0900000035762786,1,-5.449999809265137,0.0299999993294477,-5.480000019073486,22,1.1699999570846558,-11.15999984741211,-0.2000000029802322,0,2.0799999237060547,0.0,0.25,0,0.6800000071525574,-0.0099999997764825,-7.480000019073486,19,-5.480000019073486,-10.850000381469728,-0.1800000071525573,0.2562325596809387,0.2639712989330292,0.0125136220340166,-0.0174738426018892,-1.7079147948046036,-1.0,0.0,1.0,0.0,0.0,0.0,backward.csv,1742551584.733745,0
0.0026570460759103,0.0108666354790329,0.7536007165908813,-0.6572373509407043,0.0465232171118259,-0.0052318102680146,0.0196563675999641,0.03204345703125,-0.0230712890625,1.0330810546875,1,-4.269999980926514,-0.0199999995529651,0.0900000035762786,1,-5.440000057220459,0.0299999993294477,-5.420000076293945,22,0.5099999904632568,-11.020000457763672,-0.4000000059604645,0,2.0799999237060547,0.0,0.4099999964237213,0,0.6800000071525574,-0.0099999997764825,-7.550000190734863,19,-6.119999885559082,-10.6899995803833,-0.3400000035762787,0.2556649148464203,0.2639712989330292,0.0128881009941011,-0.0182896407492202,-1.7073069040132025,-1.0,0.0,1.0,0.0,0.0,0.0,backward.csv,1742551584.7738008,0
0.0027041062712669,0.0110647939145565,0.753441572189331,-0.6574162840843201,0.0276478081941604,-0.0074047376401722,0.0227994471788406,0.05401611328125,0.03057861328125,0.9964599609375,1,-4.269999980926514,-0.0099999997764825,0.0299999993294477,1,-5.440000057220459,0.0,-5.289999961853027,22,0.0700000002980232,-10.989999771118164,-0.1000000014901161,0,2.0799999237060547,0.0,0.2899999916553497,0,0.6800000071525574,0.0,-7.420000076293945,18,-0.2599999904632568,-10.670000076293944,-0.0700000002980232,0.2556649148464203,0.2639712989330292,0.0131205562699022,-0.0186242002086423,-1.7068322803834892,-1.0,0.0,1.0,0.0,0.0,0.0,backward.csv,1742551584.8138938,0
0.0028019433375447,0.0114067830145359,0.753189742565155,-0.6576985120773315,0.016093535348773,-0.0242702160030603,0.0081408433616161,0.04779052734375,-0.0040283203125,0.9462890625,1,-4.269999980926514,0.0,0.0,1,-5.440000057220459,0.0399999991059303,-5.400000095367432,21,5.699999809265137,-10.979999542236328,-0.6700000166893005,0,2.0799999237060547,0.0,0.449999988079071,0,0.6800000071525574,-0.0099999997764825,-7.590000152587891,18,-0.8999999761581421,-10.720000267028809,-0.6200000047683716,0.2556649148464203,0.2639712989330292,0.0135001811256696,-0.0192264228977544,-1.7060833534466229,-1.0,0.0,1.0,0.0,0.0,0.0,backward.csv,1742551584.873728,0
0.0026595045346766,0.0114738149568438,0.7530842423439026,-0.6578187346458435,-0.0101888766512274,0.00704828184098,0.0,0.0333251953125,-0.00274658203125,0.98492431640625,1,-4.269999980926514,-0.0399999991059303,0.0,1,-5.440000057220459,0.0599999986588954,-5.159999847412109,21,5.25,-11.15999984741211,-0.1899999976158142,0,2.0799999237060547,-0.0099999997764825,0.2899999916553497,0,0.6800000071525574,-0.0099999997764825,-7.539999961853027,18,-1.340000033378601,-10.859999656677246,-0.0099999997764825,0.2556649148464203,0.2639712989330292,0.0135888129903663,-0.0195856610032346,-1.7059376413290657,-1.0,0.0,1.0,0.0,0.0,0.0,backward.csv,1742551584.9346092,0
0.0023320368491113,0.011865334585309,0.7530606985092163,-0.6578398942947388,0.0107235759496688,-0.0202402025461196,0.0,0.04595947265625,-0.0113525390625,0.96771240234375,1,-4.269999980926514,-0.0099999997764825,0.0399999991059303,1,-5.429999828338623,0.050000000745058,-4.920000076293945,21,4.590000152587891,-11.010000228881836,-0.5799999833106995,0,2.0799999237060547,0.0199999995529651,0.3000000119209289,0,0.6800000071525574,-0.0299999993294477,-7.860000133514404,18,-1.9900000095367432,-10.779999732971191,-0.4199999868869781,0.2550908327102661,0.2639712989330292,0.0148056688399702,-0.0191244772568375,-1.705712256950973,-1.0,0.0,1.0,0.0,0.0,0.0,backward.csv,1742551584.9737399,0
0.0024859348777681,0.0122090419754385,0.7530320286750793,-0.6578659415245056,-0.0006129667162895,0.0152304535731673,0.0,0.01922607421875,-0.00640869140625,1.02960205078125,1,-4.269999980926514,-0.0299999993294477,0.1199999973177909,1,-5.429999828338623,0.0099999997764825,-5.070000171661377,21,4.150000095367432,-11.029999732971191,-0.1000000014901161,0,2.0799999237060547,-0.0199999995529651,0.3300000131130218,0,0.6800000071525574,-0.0099999997764825,-7.539999961853027,18,-2.430000066757202,-10.890000343322754,-0.2300000041723251,0.2550908327102661,0.2639712989330292,0.0147745973476418,-0.0199751077647714,-1.705663711405353,-1.0,0.0,1.0,0.0,0.0,0.0,backward.csv,1742551585.0343573,0
-0.0177511218935251,0.0076257903128862,-0.8032879829406738,-0.5952774286270142,0.0033416913356631,0.0013551218435168,0.0,0.0369873046875,0.01043701171875,1.02044677734375,1,-4.239999771118164,0.0,0.5799999833106995,1,-5.519999980926514,0.0,-6.25,30,1.690000057220459,0.0,0.3300000131130218,0,2.0799999237060547,0.0,0.0599999986588954,0,0.6800000071525574,0.0,-5.690000057220459,27,-5.96999979019165,0.0,0.5099999904632568,0.2600260972976684,0.2639712989330292,0.0088886745126791,-0.0376063108966677,1.865927237277222,-0.25,0.0,1.0,0.0,0.0,0.0,backward1.csv,1742573807.3712401,0
-0.0177034847438335,0.0076276091858744,-0.8032882809638977,-0.5952784419059753,-0.001892575295642,0.0086861718446016,0.0,0.03680419921875,0.0120849609375,1.01458740234375,1,-4.239999771118164,0.0,0.5799999833106995,1,-5.519999980926514,0.0,-6.260000228881836,30,1.690000057220459,0.0,0.270000010728836,0,2.0799999237060547,0.0,0.0700000002980232,0,0.6800000071525574,0.0,-5.699999809265137,27,-5.96999979019165,0.0099999997764825,0.4199999868869781,0.2600260972976684,0.2639712989330292,0.0088289998436143,-0.0375319171799381,1.8659274373999413,-1.0,0.0,1.0,0.0,0.0,0.0,backward1.csv,1742573807.392722,0
-0.0176750160753726,0.0075833541341125,-0.8032897114753723,-0.5952777862548828,-0.0039919158443808,0.0212383121252059,0.0,0.04248046875,0.01318359375,1.0360107421875,1,-4.239999771118164,0.0,0.5899999737739563,1,-5.519999980926514,0.0,-6.360000133514404,30,1.690000057220459,-0.0199999995529651,0.3100000023841858,0,2.0799999237060547,0.0,0.1199999973177909,0,0.6800000071525574,0.0,-5.78000020980835,27,-5.96999979019165,-0.0099999997764825,0.4600000083446502,0.2600260972976684,0.2639712989330292,0.0088661554398268,-0.0374334633991145,1.8659297783040325,-1.0,0.0,1.0,0.0,0.0,0.0,backward1.csv,1742573807.4470499,0
-0.017453147098422,0.0074093691073358,-0.8032932877540588,-0.5952817797660828,0.0075356415472924,-0.042558018118143,0.0,0.0205078125,0.02252197265625,1.07061767578125,1,-4.230000019073486,0.0599999986588954,0.4199999868869781,1,-5.519999980926514,0.0,-5.800000190734863,30,1.7000000476837158,0.2599999904632568,1.4900000095367432,0,2.0799999237060547,0.0599999986588954,-0.0099999997764825,0,0.6800000071525574,0.0,-5.199999809265137,27,-5.960000038146973,0.2300000041723251,1.7100000381469729,0.2600260972976684,0.2639712989330292,0.0088814405844569,-0.0368696693885052,1.8659299314013864,-1.0,0.0,1.0,0.0,0.0,0.0,backward1.csv,1742573807.4911218,0
-0.019369825720787,0.0087792826816439,-0.803249180316925,-0.5952634215354919,0.0190548133105039,-0.1975432485342025,0.0,-0.00457763671875,0.02911376953125,1.03399658203125,1,-4.21999979019165,0.25,0.5199999809265137,1,-5.519999980926514,0.0,-6.099999904632568,30,1.7799999713897705,1.1799999475479126,0.6899999976158142,0,2.0899999141693115,0.2300000041723251,0.2000000029802322,0,0.6800000071525574,0.0,-5.369999885559082,27,-5.889999866485596,1.100000023841858,1.0199999809265137,0.2600260972976684,0.2639712989330292,0.008964262785019,-0.0415815465147295,1.8658842853759512,-1.0,0.0,1.0,0.0,0.0,0.0,backward1.csv,1742573807.5268638,0
-0.0243456494063138,0.0125527465716004,-0.8033173680305481,-0.5949209332466125,0.0169604197144508,-0.2656110823154449,0.0,0.01080322265625,0.013916015625,0.995361328125,1,-4.179999828338623,0.4799999892711639,0.75,1,-5.519999980926514,0.0,-6.409999847412109,30,1.9299999475479128,2.190000057220459,-0.1500000059604644,0,2.130000114440918,0.4799999892711639,0.3799999952316284,0,0.6800000071525574,0.0,-5.659999847412109,27,-5.71999979019165,2.3299999237060547,0.0299999993294477,0.2600260972976684,0.2639712989330292,0.0088127905996168,-0.0540767015549462,1.8664640530847647,-1.0,0.0,1.0,0.0,0.0,0.0,backward1.csv,1742573807.5866473,0
-0.0301971733570098,0.0166988465934991,-0.8034656643867493,-0.5943502187728882,-0.0270218756049871,-0.2656110823154449,0.0486469641327858,-0.01226806640625,0.031494140625,1.00213623046875,1,-4.159999847412109,0.550000011920929,1.0199999809265137,1,-5.519999980926514,0.0,-6.510000228881836,30,2.039999961853028,2.390000104904175,-0.8700000047683716,0,2.1600000858306885,0.5899999737739563,0.5099999904632568,0,0.6800000071525574,0.0,-6.150000095367432,27,-5.599999904632568,2.759999990463257,-0.8700000047683716,0.2600260972976684,0.2639712989330292,0.009082874582989,-0.0684280990014833,1.867485936930912,-1.0,0.0,1.0,0.0,0.0,0.0,backward1.csv,1742573807.6498513,0
-0.0333446264266967,0.0192183591425418,-0.8035833239555359,-0.5939467549324036,0.0022996540647,-0.2540919184684753,0.0119950473308563,0.0047607421875,0.0040283203125,1.00579833984375,1,-4.119999885559082,0.6299999952316284,0.9700000286102296,1,-5.519999980926514,0.0,-7.03000020980835,30,2.1700000762939453,2.2799999713897705,-1.7100000381469729,0,2.190000057220459,0.6000000238418579,0.8199999928474426,0,0.6800000071525574,0.0099999997764825,-6.199999809265137,27,-5.449999809265137,2.450000047683716,-1.399999976158142,0.2600260972976684,0.2639712989330292,0.0087484535290242,-0.0764943133019905,1.868251441423868,-1.0,0.0,1.0,0.0,0.0,0.0,backward1.csv,1742573807.6866465,0
-0.03623478859663,0.0219172053039073,-0.8035218715667725,-0.5937671065330505,-0.0081723202019929,-0.1420417726039886,0.0,-0.04010009765625,-0.016845703125,1.02996826171875,1,-4.090000152587891,0.6000000238418579,0.9100000262260436,1,-5.519999980926514,0.0099999997764825,-7.159999847412109,30,2.2300000190734863,1.7799999713897705,-1.8600000143051147,0,2.2100000381469727,0.5699999928474426,0.8199999928474426,0,0.6800000071525574,0.0,-6.139999866485596,27,-5.389999866485596,1.919999957084656,-1.409999966621399,0.2600260972976684,0.2639712989330292,0.0078360889822375,-0.0843583394789216,1.8684715562463912,-1.0,0.0,1.0,0.0,0.0,0.0,backward1.csv,1742573807.751789,0
-0.0372322425246238,0.0225623231381177,-0.803477942943573,-0.5937407612800598,0.010677233338356,-0.120050624012947,0.0,-0.05364990234375,0.012451171875,1.020263671875,1,-4.059999942779541,0.550000011920929,1.0800000429153442,1,-5.519999980926514,0.0,-7.309999942779541,30,2.25,0.699999988079071,-2.5299999713897705,0,2.25,0.5799999833106995,0.6499999761581421,0,0.6800000071525574,0.0,-6.739999771118164,27,-5.349999904632568,0.949999988079071,-2.440000057220459,0.2600260972976684,0.2639712989330292,0.007986044813984,-0.0867316101199586,1.868445978765613,-1.0,0.0,1.0,0.0,0.0,0.0,backward1.csv,1742573807.7868543,0
-0.0377586893737316,0.0225082840770483,-0.8034719228744507,-0.5937175750732422,-0.0018219461198896,-0.0137605527415871,0.0,-0.047607421875,0.00567626953125,1.0946044921875,1,-4.03000020980835,0.4900000095367431,1.0,1,-5.519999980926514,0.0199999995529651,-8.069999694824219,30,2.190000057220459,-0.6600000262260437,-3.9600000381469727,0,2.2799999713897705,0.4799999892711639,0.7699999809265137,0,0.6800000071525574,0.0,-7.28000020980835,27,-5.409999847412109,-0.5400000214576721,-3.759999990463257,0.2600260972976684,0.2639712989330292,0.0086998499235205,-0.0875148890770235,1.8684416016492915,-1.0,0.0,1.0,0.0,0.0,0.0,backward1.csv,1742573807.8468888,0
-0.0374025404453277,0.0221068002283573,-0.8034945130348206,-0.5937247276306152,0.0013140207156538,0.0910073295235633,0.0,-0.0552978515625,-0.01409912109375,1.03216552734375,1,-4.03000020980835,0.270000010728836,1.1299999952316284,1,-5.519999980926514,0.0199999995529651,-7.920000076293945,30,2.049999952316284,-2.309999942779541,-3.900000095367432,0,2.289999961853028,0.3100000023841858,0.7099999785423279,0,0.6800000071525574,0.0,-7.440000057220459,27,-5.539999961853027,-2.0899999141693115,-3.7799999713897705,0.2600260972976684,0.2639712989330292,0.0089216873192868,-0.086463873675195,1.86845205501007,-1.0,0.0,1.0,0.0,0.0,0.0,backward1.csv,1742573807.8868616,0
-0.0365349240601062,0.0214801337569952,-0.8035340905189514,-0.593748152256012,0.0086331758648157,0.1088941916823387,0.0,-0.06573486328125,-0.005126953125,1.059814453125,1,-4.03000020980835,0.0599999986588954,0.8700000047683716,1,-5.519999980926514,0.0,-7.539999961853027,30,1.830000042915344,-4.099999904632568,-3.0799999237060547,0,2.2799999713897705,0.0900000035762786,0.4699999988079071,0,0.6800000071525574,0.0,-7.230000019073486,27,-5.75,-3.849999904632568,-2.950000047683716,0.2600260972976684,0.2639712989330292,0.0088967746399464,-0.0843215807791993,1.8684720065520892,-1.0,0.0,1.0,0.0,0.0,0.0,backward1.csv,1742573807.9085486,0
-0.0314440727233886,0.0170882679522037,-0.8037675023078918,-0.5938662886619568,0.0033971881493926,0.1874340027570724,0.0,-0.0406494140625,0.0238037109375,0.9781494140625,1,-4.039999961853027,-0.1000000014901161,0.6899999976158142,1,-5.519999980926514,0.0,-7.880000114440918,30,1.4299999475479126,-6.059999942779541,-4.039999961853027,0,2.2699999809265137,-0.0799999982118606,0.3100000023841858,0,0.6800000071525574,0.0,-7.789999961853027,27,-6.139999866485596,-5.860000133514404,-3.950000047683716,0.2600260972976684,0.2639712989330292,0.0099022020684206,-0.0709031332097717,1.8685835899181624,-1.0,0.0,1.0,0.0,0.0,0.0,backward1.csv,1742573807.971111,0
-0.0230830907821655,0.0101199364289641,-0.8040688633918762,-0.5940017700195312,0.0065387804061174,0.274351418018341,0.0,-0.0670166015625,0.05914306640625,0.96844482421875,1,-4.059999942779541,-0.2899999916553497,0.2800000011920929,1,-5.519999980926514,-0.0099999997764825,-7.28000020980835,30,0.9100000262260436,-7.989999771118164,-1.8799999952316284,0,2.25,-0.3499999940395355,0.3199999928474426,0,0.6800000071525574,-0.0099999997764825,-6.650000095367432,26,-0.3799999952316284,-7.989999771118164,-1.4700000286102295,0.2600260972976684,0.2639712989330292,0.0111622604525016,-0.0491631116816871,1.8688006020741288,-1.0,0.0,1.0,0.0,0.0,0.0,backward1.csv,1742573808.0470815,0
-0.019263157621026,0.0066925133578479,-0.8041753172874451,-0.5940423607826233,0.0295771248638629,0.157065287232399,0.0,-0.05255126953125,0.03131103515625,0.98638916015625,1,-4.079999923706055,-0.3499999940395355,0.2899999916553497,1,-5.519999980926514,0.0,-6.980000019073486,30,0.5400000214576721,-8.59000015258789,-1.75,0,2.2300000190734863,-0.3700000047683716,0.1599999964237213,0,0.6800000071525574,-0.0099999997764825,-6.670000076293945,26,-0.75,-8.579999923706055,-1.4600000381469729,0.2600260972976684,0.2639712989330292,0.0121318506948183,-0.0389430271420641,1.868900054233039,-1.0,0.0,1.0,0.0,0.0,0.0,backward1.csv,1742573808.0866942,0
-0.0163852274417877,0.0042614419944584,-0.8042601346969604,-0.594036340713501,0.0097334273159503,0.0577438995242118,0.0130284577608108,-0.04010009765625,0.0069580078125,1.0078125,1,-4.099999904632568,-0.3899999856948852,0.5,1,-5.510000228881836,0.0,-6.869999885559082,30,0.1700000017881393,-8.970000267028809,-1.3600000143051147,0,2.220000028610229,-0.3199999928474426,-0.1000000014901161,0,0.6800000071525574,0.0,-6.880000114440918,26,-1.100000023841858,-8.720000267028809,-1.6200000047683716,0.259503573179245,0.2639712989330292,0.0126187898273594,-0.0314240447404956,1.8690485637671288,-1.0,0.0,1.0,0.0,0.0,0.0,backward1.csv,1742573808.1503112,0
-0.0155821330845355,0.003834112547338,-0.8044052720069885,-0.5938641428947449,-0.0635336190462112,0.0494969859719276,0.0475832298398017,-0.01171875,0.03057861328125,1.005615234375,1,-4.110000133514404,-0.3199999928474426,0.3199999928474426,1,-5.519999980926514,0.0,-6.980000019073486,29,5.900000095367432,-9.210000038146973,-1.649999976158142,0,2.200000047683716,-0.3100000023841858,0.3000000119209289,0,0.6800000071525574,0.0,-6.789999961853027,26,-1.6399999856948853,-8.949999809265137,-1.7000000476837158,0.2600260972976684,0.2639712989330292,0.0123447103383071,-0.0296269179300569,1.8695133057622144,-1.0,0.0,1.0,0.0,0.0,0.0,backward1.csv,1742573808.166525,0
-0.0150312790647149,0.0036917505785822,-0.8054460883140564,-0.5924669504165649,0.0171959437429904,-0.0172922015190124,0.0653799623250961,-0.02435302734375,-0.085693359375,1.0733642578125,1,-4.130000114440918,-0.3700000047683716,0.2300000041723251,1,-5.510000228881836,0.0700000002980232,-7.059999942779541,29,5.5,-9.59000015258789,-1.350000023841858,0,2.180000066757202,-0.3799999952316284,0.6100000143051147,0,0.6800000071525574,0.0,-6.510000228881836,26,-2.0299999713897705,-9.31999969482422,-1.25,0.259503573179245,0.2639712989330292,0.0118691898442883,-0.0285921458361614,1.8730114734666687,-1.0,0.0,1.0,0.0,0.0,0.0,backward1.csv,1742573808.2265186,0
-0.0161967743188142,0.0038979272358119,-0.8056653738021851,-0.5921366810798645,0.0515926927328109,-0.0485749244689941,0.0,-0.0439453125,-0.02471923828125,0.98858642578125,1,-4.150000095367432,-0.3300000131130218,0.3300000131130218,1,-5.510000228881836,0.0299999993294477,-6.070000171661377,29,4.920000076293945,-9.699999809265137,-1.3300000429153442,0,2.1700000762939453,-0.2899999916553497,0.3000000119209289,0,0.6700000166893005,-0.0599999986588954,-7.070000171661377,26,-2.5899999141693115,-9.40999984741211,-0.9900000095367432,0.259503573179245,0.2644349038600921,0.0129070061379239,-0.0307194031935606,1.8737749909201808,-1.0,0.0,1.0,0.0,0.0,0.0,backward1.csv,1742573808.286368,0
-0.0173139348626136,0.0037136941682547,-0.8056543469429016,-0.5921212434768677,0.0149325914680957,-0.0170934684574604,0.0,-0.01446533203125,0.0421142578125,1.03253173828125,1,-4.159999847412109,-0.2000000029802322,0.3899999856948852,1,-5.510000228881836,0.0,-6.449999809265137,29,4.349999904632568,-9.550000190734863,-1.5499999523162842,0,2.1600000858306885,-0.1899999976158142,0.3100000023841858,0,0.6700000166893005,-0.0099999997764825,-7.130000114440918,26,-3.1600000858306885,-9.4399995803833,-1.5499999523162842,0.259503573179245,0.2644349038600921,0.0145280789734746,-0.032301625119671,1.873750397301524,-1.0,0.0,1.0,0.0,0.0,0.0,backward1.csv,1742573808.351551,0
-0.0175748914480209,0.002926954999566,-0.8056612014770508,-0.5921086668968201,0.0536858700215816,0.0175431221723556,0.0,0.02398681640625,-0.029296875,0.970458984375,1,-4.170000076293945,-0.1800000071525573,0.2300000041723251,1,-5.510000228881836,0.0099999997764825,-5.869999885559082,29,3.950000047683716,-9.75,-1.2899999618530271,0,2.150000095367432,-0.209999993443489,0.3799999952316284,0,0.6700000166893005,-0.0099999997764825,-7.21999979019165,26,-3.559999942779541,-9.779999732971191,-1.0299999713897705,0.259503573179245,0.2644349038600921,0.0161050561668705,-0.0317903215747144,1.873757463573916,-1.0,0.0,1.0,0.0,0.0,0.0,backward1.csv,1742573808.3910296,0
-0.0178531054407358,0.0026905026752501,-0.8056606650352478,-0.5921021699905396,-0.014397301711142,0.0165182501077651,0.0,0.018310546875,0.03790283203125,1.1220703125,1,-4.179999828338623,-0.2399999946355819,0.3600000143051147,1,-5.510000228881836,0.0399999991059303,-5.920000076293945,29,3.3399999141693115,-10.170000076293944,-0.959999978542328,0,2.140000104904175,-0.2399999946355819,0.4300000071525574,0,0.6700000166893005,0.0199999995529651,-7.25,26,-4.179999828338623,-10.229999542236328,-0.7900000214576721,0.259503573179245,0.2644349038600921,0.0168158394228631,-0.0319586344531455,1.8737545563445492,-1.0,0.0,1.0,0.0,0.0,0.0,backward1.csv,1742573808.4470253,0
-0.0179585888981819,0.0026623248122632,-0.8056554198265076,-0.592106282711029,-0.0342213287949562,-0.0232488457113504,0.0,0.030029296875,-0.00439453125,0.94647216796875,1,-4.190000057220459,-0.2399999946355819,0.4799999892711639,1,-5.510000228881836,0.0,-5.460000038146973,29,2.9100000858306885,-10.40999984741211,-0.8799999952316284,0,2.130000114440918,-0.1700000017881393,0.1700000017881393,0,0.6700000166893005,0.0,-7.380000114440918,26,-4.590000152587891,-10.260000228881836,-1.0099999904632568,0.259503573179245,0.2644349038600921,0.0169865183919126,-0.0320951373572568,1.8737378697054272,-1.0,0.0,1.0,0.0,0.0,0.0,backward1.csv,1742573808.4914465,0
-0.0169519651681184,0.003377245273441,-0.8058112859725952,-0.5919200778007507,-0.0204984974116086,0.0312707833945751,0.0130140073597431,0.03790283203125,0.0113525390625,1.0484619140625,1,-4.199999809265137,-0.1899999976158142,0.3300000131130218,1,-5.510000228881836,0.0,-5.650000095367432,29,2.490000009536743,-10.5,-0.6600000262260437,0,2.130000114440918,-0.1299999952316284,0.0599999986588954,0,0.6700000166893005,0.0,-7.159999847412109,26,-5.0,-10.289999961853027,-0.8700000047683716,0.259503573179245,0.2644349038600921,0.014633272525531,-0.0313234102146278,1.874265935137114,-1.0,0.0,1.0,0.0,0.0,0.0,backward1.csv,1742573808.5469184,0
-0.0155894765630364,0.0035071759484708,-0.8060790300369263,-0.5915921926498413,-0.1024203896522522,0.0480285286903381,0.0046436339616775,0.03936767578125,-0.0076904296875,1.02630615234375,1,-4.199999809265137,-0.0700000002980232,0.0700000002980232,1,-5.5,0.0299999993294477,-6.170000076293945,29,1.850000023841858,-10.5600004196167,-1.0499999523162842,0,2.119999885559082,-0.0599999986588954,0.209999993443489,0,0.6700000166893005,-0.0199999995529651,-6.889999866485596,26,-5.619999885559082,-10.329999923706056,-1.0700000524520874,0.2589745223522186,0.2644349038600921,0.012796939970667,-0.029286522442946,1.875153434389776,-1.0,0.0,1.0,0.0,0.0,0.0,backward1.csv,1742573808.5864248,0
-0.0133037595078349,0.0020166567992419,-0.8062073588371277,-0.5914801359176636,0.0525402352213859,0.1119090393185615,0.0035971216857433,0.02764892578125,-0.013916015625,0.93585205078125,1,-4.199999809265137,-0.050000000745058,0.050000000745058,1,-5.5,0.0099999997764825,-5.409999847412109,29,1.1799999475479126,-10.93000030517578,-0.7200000286102295,0,2.119999885559082,-0.0299999993294477,0.0,0,0.6700000166893005,-0.0099999997764825,-7.269999980926514,26,-6.260000228881836,-10.510000228881836,-0.6700000166893005,0.2589745223522186,0.2644349038600921,0.0124900053774911,-0.0238390604016219,1.8755245714591255,-1.0,0.0,1.0,0.0,0.0,0.0,backward1.csv,1742573808.646782,0
