ROS2 Timestamp (sec),ROS2 Timestamp (nanosec),orientation_x,orientation_y,orientation_z,orientation_w,angular_velocity_x,angular_velocity_y,angular_velocity_z,linear_acceleration_x,linear_acceleration_y,linear_acceleration_z,left_hip_enc_rev,left_hip_pos,left_hip_vel,left_hip_iq,left_knee_enc_rev,left_knee_pos,left_knee_vel,left_knee_iq,left_wheel_enc_rev,left_wheel_pos,left_wheel_vel,left_wheel_iq,right_hip_enc_rev,right_hip_pos,right_hip_vel,right_hip_iq,right_knee_enc_rev,right_knee_pos,right_knee_vel,right_knee_iq,right_wheel_enc_rev,right_wheel_pos,right_wheel_vel,right_wheel_iq,left_leg_length,right_leg_length,roll,pitch,yaw,cmd_forward,cmd_left,cmd_up,cmd_roll,cmd_pitch,cmd_leg_split,Unified_Timestamp,label
1742578193,213931973,-0.0017238942673429,-0.0138440309092402,-0.0556411109864711,0.9983534216880798,0.0033224693033844,0.0965374633669853,-0.0518072843551635,-0.60150146484375,-0.33636474609375,0.68682861328125,1,-4.389999866485596,0.1299999952316284,0.4099999964237213,1,-5.440000057220459,-0.050000000745058,-5.739999771118164,1,2.430000066757202,1.950000047683716,2.950000047683716,0,2.0,0.1000000014901161,-0.800000011920929,0,0.6299999952316284,0.0599999986588954,-4.21999979019165,1,-0.9100000262260436,2.640000104904175,3.130000114440918,0.2556649148464203,0.2662229835987091,-0.0019022551346657,-0.0278379053943104,-0.1113240976275179,0.0,0.0,1.0,0.0,0.0,0.0,1742578193.213932,1
1742578204,513781140,0.0027889360208064,-0.0300402510911226,-0.0971060097217559,0.9948167204856871,0.0901786386966705,-0.0763341635465622,0.0,-1.442138671875,-0.19482421875,0.714111328125,1,-4.139999866485596,1.0299999713897705,-2.3399999141693115,1,-5.480000019073486,-0.2300000041723251,-8.829999923706055,1,3.650000095367432,7.079999923706055,-8.329999923706055,0,2.2100000381469727,0.9100000262260436,-1.6699999570846558,0,0.6399999856948853,-0.1000000014901161,-8.779999732971191,1,-0.0299999993294477,7.119999885559082,-8.029999732971191,0.2578970789909363,0.2657859325408935,0.011403403422548,-0.0592621252509249,-0.1949454158602555,0.0,0.0,1.0,0.0,0.0,0.0,1742578204.513781,1
1742578213,956038662,0.0018818655516952,-0.0285956170409917,-0.098511591553688,0.9947232007980348,-0.1439021080732345,0.5949093103408813,-0.8340227007865906,-5.12420654296875,0.54437255859375,2.18994140625,1,-4.190000057220459,0.0099999997764825,1.590000033378601,1,-5.46999979019165,-0.0199999995529651,-5.650000095367432,1,3.319999933242798,6.96999979019165,1.4500000476837158,0,2.1700000762939453,0.1700000017881393,-4.25,0,0.6399999856948853,-0.0199999995529651,-5.980000019073486,1,-0.25,7.03000020980835,1.950000047683716,0.2573486566543579,0.2657859325408935,0.0093930223942257,-0.0565488097920613,-0.1976902587965492,0.0,0.0,1.0,0.0,0.0,0.0,1742578213.9560387,1
1742578226,313420728,0.0022402580361813,-0.0283513404428958,-0.1040739640593528,0.994162917137146,-0.1291525214910507,0.3836932480335235,-1.1680957078933716,-4.43865966796875,0.3369140625,2.5133056640625,1,-4.190000057220459,-0.0700000002980232,0.4000000059604645,1,-5.480000019073486,0.0399999991059303,-6.079999923706055,1,3.2799999713897705,7.039999961853027,-0.0399999991059303,0,2.1600000858306885,0.0299999993294477,0.0299999993294477,0,0.6499999761581421,-0.0099999997764825,-6.28000020980835,1,-0.4000000059604645,7.400000095367432,-0.1400000005960464,0.2578970789909363,0.2653422057628631,0.0103720425221776,-0.0559345598509347,-0.2089003823617743,0.0,0.0,1.0,0.0,0.0,0.0,1742578226.3134208,1
1742578234,253206131,0.002849873388186,-0.0228523220866918,-0.0955138728022575,0.9951616525650024,-0.097594641149044,0.3581446707248688,-0.9649630188941956,-2.55963134765625,-1.014404296875,0.9356689453125,1,-4.199999809265137,0.0900000035762786,1.0299999713897705,1,-5.46999979019165,0.0,-6.179999828338623,1,3.369999885559082,6.5,0.0399999991059303,0,2.150000095367432,0.2300000041723251,-2.7699999809265137,0,0.6499999761581421,0.0199999995529651,-6.059999942779541,1,-0.2800000011920929,6.949999809265137,0.7900000214576721,0.2573486566543579,0.2653422057628631,0.0100479170219103,-0.0449542440261843,-0.1915961927224036,0.0,0.0,1.0,0.0,0.0,0.0,1742578234.253206,1
1742578241,953007363,0.0026253333780914,-0.027549834921956,-0.1075525283813476,0.9938141703605652,-0.1090880706906318,0.331323891878128,-1.5209819078445437,-6.0,0.8865966796875,2.602294921875,1,-4.25,0.1199999973177909,2.740000009536743,1,-5.489999771118164,0.0,-4.460000038146973,1,3.200000047683716,9.010000228881836,1.0700000524520874,0,2.109999895095825,0.4000000059604645,-5.53000020980835,0,0.6399999856948853,0.0,-6.860000133514404,1,-1.059999942779541,9.779999732971191,2.3299999237060547,0.2584390342235565,0.2657859325408935,0.0111609290860234,-0.0542206733411604,-0.2159074958816777,0.0,0.0,1.0,0.0,0.0,0.0,1742578241.9530077,1
1742578249,817487344,0.0011024177074432,-0.039322130382061,-0.1067757681012153,0.9935047030448914,-0.024886617437005,0.4736415445804596,-1.5000309944152832,-4.8424072265625,0.3087158203125,2.8970947265625,1,-4.179999828338623,0.0900000035762786,2.440000057220459,1,-5.480000019073486,-0.0099999997764825,-4.599999904632568,1,3.880000114440918,8.3100004196167,1.830000042915344,0,2.180000066757202,0.3400000035762787,-4.940000057220459,0,0.6499999761581421,-0.0299999993294477,-5.920000076293945,1,-1.0,8.449999809265137,2.0999999046325684,0.2578970789909363,0.2653422057628631,0.0106202862560137,-0.0779770180302428,-0.2145400856440758,0.0,0.0,1.0,0.0,0.0,0.0,1742578249.8174872,1
1742578267,852599199,0.0016183162806555,-0.0337964631617069,-0.104435883462429,0.9939559102058412,-0.0517291873693466,0.857738733291626,-0.5890281796455383,-2.71929931640625,-0.92852783203125,1.7208251953125,1,-4.199999809265137,-0.0399999991059303,0.1700000017881393,1,-5.46999979019165,-0.0900000035762786,-3.9600000381469727,1,3.759999990463257,7.179999828338623,2.940000057220459,0,2.1700000762939453,0.0700000002980232,-2.109999895095825,0,0.6399999856948853,-0.0900000035762786,-5.179999828338623,1,-1.0800000429153442,7.460000038146973,3.799999952316284,0.2573486566543579,0.2657859325408935,0.0102994156292793,-0.0668962515268873,-0.2097182832945433,0.0,0.0,1.0,0.0,0.0,0.0,1742578267.8525991,1
1742578288,514360929,0.0031184898689389,-0.0198226626962423,-0.0993885025382042,0.9948463439941406,-0.0601546168327331,0.0731222108006477,-0.241364985704422,-1.19879150390625,-0.702392578125,1.012939453125,1,-4.210000038146973,0.0199999995529651,0.1299999952316284,1,-5.460000038146973,0.0199999995529651,-6.179999828338623,1,3.4800000190734863,6.440000057220459,-0.4099999964237213,0,2.150000095367432,0.0099999997764825,0.5600000023841858,0,0.6399999856948853,0.050000000745058,-6.050000190734863,1,-0.9800000190734864,6.800000190734863,-0.2899999916553497,0.2567938268184662,0.2657859325408935,0.0101529538523103,-0.0388308806526384,-0.199343104572076,0.0,0.0,1.0,0.0,0.0,0.0,1742578288.514361,1
1742578300,12442667,0.000669278902933,-0.026220953091979,-0.159480482339859,0.986852526664734,-0.0761545449495315,-0.0905540585517883,0.1215583905577659,-2.8656005859375,-0.409423828125,0.3072509765625,1,-4.179999828338623,1.4199999570846558,-6.110000133514404,1,-5.510000228881836,-0.1800000071525573,-9.710000038146973,1,1.9299999475479128,10.630000114440918,-6.360000133514404,0,2.140000104904175,1.0099999904632568,-0.1299999952316284,0,0.6299999952316284,0.0099999997764825,-5.400000095367432,1,-3.3299999237060547,10.289999961853027,-6.190000057220459,0.259503573179245,0.2662229835987091,0.009697459506207,-0.0515617979353259,-0.3206900099340841,0.0,0.0,1.0,0.0,0.0,0.0,1742578300.0124426,1
1742578323,71758567,-0.0017625988693907,-0.0293836556375026,-0.4150469899177551,0.9093236923217772,0.4080155789852142,0.1051257997751236,1.015901803970337,-2.01617431640625,0.22412109375,1.10687255859375,1,-4.269999980926514,-0.6600000262260437,-0.7900000214576721,1,-5.46999979019165,0.0299999993294477,-4.0,1,4.130000114440918,3.849999904632568,8.329999923706055,0,2.190000057220459,0.2800000011920929,2.470000028610229,0,0.6399999856948853,0.0900000035762786,-4.860000133514404,1,-2.680000066757202,9.859999656677246,-2.6600000858306885,0.2573486566543579,0.2657859325408935,0.0212192432755778,-0.0549292493137767,-0.8569674464205526,0.0,0.0,1.0,0.0,0.0,0.0,1742578323.0717585,2
1742578368,11027126,-0.0131446477025747,-0.0356884598731994,-0.3910192847251892,0.9195963740348816,0.1775370389223098,0.1177776604890823,0.861855685710907,-1.402587890625,-0.2310791015625,1.18707275390625,1,-4.260000228881836,0.6700000166893005,-1.5800000429153442,1,-5.420000076293945,-0.5899999737739563,-4.03000020980835,1,3.619999885559082,5.25,7.980000019073486,0,2.180000066757202,1.350000023841858,0.800000011920929,0,0.6200000047683716,0.0599999986588954,-2.400000095367432,1,-5.769999980926514,9.15999984741211,1.0099999904632568,0.2545104026794433,0.2666533887386322,0.0037450278925672,-0.0759906927509005,-0.8042351717022097,-0.57,0.0,1.0,0.0,0.0,0.0,1742578368.011027,2
1742578402,110661538,0.0093208700418472,-0.0197425540536642,-0.4540881812572479,0.8906891942024231,0.2400988489389419,0.2712717652320862,1.4743962287902832,-2.322509765625,-0.87249755859375,1.21856689453125,1,-4.320000171661377,0.449999988079071,-0.4600000083446502,1,-5.659999847412109,-1.1100000143051147,-0.1299999952316284,1,2.819999933242798,17.90999984741211,6.150000095367432,0,2.150000095367432,0.4600000083446502,-1.7699999809265137,0,0.7400000095367432,0.8299999833106995,-7.340000152587891,0,-2.759999990463257,12.670000076293944,0.3600000143051147,0.2666533887386322,0.2610516548156738,0.0345529120633441,-0.0267071400660316,-0.9434015546311126,0.0,0.0,1.0,0.0,0.0,0.0,1742578402.1106615,2
1742578417,710273057,-0.0082981856539845,-0.0215135477483272,-0.525592029094696,0.8504242897033691,0.0353059247136116,0.2536118924617767,0.5235483050346375,-0.36529541015625,0.33544921875,0.61065673828125,1,-4.329999923706055,-0.5099999904632568,3.619999885559082,1,-5.46999979019165,0.0,-0.9100000262260436,1,3.440000057220459,5.46999979019165,8.109999656677246,0,2.069999933242798,0.0900000035762786,-0.1400000005960464,0,0.6200000047683716,0.0,-4.920000076293945,0,-5.480000019073486,8.34000015258789,2.0199999809265137,0.2573486566543579,0.2666533887386322,0.0085095849247966,-0.045329729805923,-1.1073433054677648,0.0,0.0,1.0,0.0,0.0,0.0,1742578417.710273,2
1742578429,270060220,-0.0145243750885128,-0.0054300846531987,-0.4409807026386261,0.8973826766014099,-0.0173216070979833,0.3123994767665863,0.0659257397055625,-0.91094970703125,0.12396240234375,1.0682373046875,1,-4.460000038146973,0.209999993443489,-1.2599999904632568,1,-5.199999809265137,-0.3100000023841858,-8.8100004196167,2,5.190000057220459,3.930000066757202,3.200000047683716,0,1.9600000381469729,0.1899999976158142,1.6299999952316284,0,0.6000000238418579,0.270000010728836,-1.6299999952316284,0,-4.480000019073486,3.619999885559082,2.0,0.2401584237813949,0.2674942314624786,-0.0212857423508658,-0.0225575790652168,-0.9132602222724672,-0.7,0.0,1.0,0.0,0.0,0.0,1742578429.2700603,2
1742578440,809942046,0.0023226495832204,-0.0222164969891309,-0.4077053070068359,0.9128403067588806,-0.0698700025677681,0.2656860053539276,1.5969258546829224,-1.67340087890625,-0.38946533203125,0.77783203125,1,-4.260000228881836,0.0,-4.070000171661377,1,-5.550000190734863,-0.5699999928474426,-2.0,3,0.9300000071525574,12.109999656677246,6.409999847412109,0,2.190000057220459,0.0799999982118606,3.309999942779541,0,0.6600000262260437,0.1800000071525573,-3.5299999713897705,0,-2.5899999141693115,9.34000015258789,0.9800000190734864,0.2615546584129333,0.2648918628692627,0.0223745813862448,-0.0386759561159597,-0.8405348437619954,0.0,0.0,1.0,0.0,0.0,0.0,1742578440.809942,2
1742578449,609802956,-0.0003269076696597,-0.0151633704081177,-0.4294479787349701,0.9029642343521118,0.0929286479949951,-0.1885701268911361,1.4429949522018433,-1.7684326171875,-0.38214111328125,1.4091796875,1,-4.289999961853027,-0.7300000190734863,-0.0099999997764825,1,-5.5,-0.3600000143051147,-3.619999885559082,3,4.889999866485596,3.819999933242798,8.720000267028809,0,2.200000047683716,0.4199999868869781,-0.0599999986588954,0,0.6299999952316284,0.1099999994039535,-4.050000190734863,0,-2.5799999237060547,9.869999885559082,-1.309999942779541,0.2589745223522186,0.2662229835987091,0.012438467016256,-0.0276682720061607,-0.8880443620444501,-0.7,0.0,1.0,0.0,0.0,0.0,1742578449.609803,2
1742578461,449557699,-0.0002150185173377,-0.0229646116495132,-0.4043544232845306,0.9143139719963074,0.3594225943088531,-0.0254098121076822,1.6178990602493286,-0.2783203125,-0.14007568359375,1.037841796875,1,-4.269999980926514,-0.1599999964237213,-3.009999990463257,1,-5.519999980926514,-0.209999993443489,-3.009999990463257,4,1.3899999856948853,6.849999904632568,10.960000038146973,0,2.200000047683716,0.270000010728836,4.289999961853027,0,0.6499999761581421,0.2000000029802322,-5.050000190734863,0,-2.799999952316284,9.06999969482422,-1.690000057220459,0.2600260972976684,0.2653422057628631,0.0181956830096608,-0.0421801244018211,-0.8331628094602196,0.0,0.0,1.0,0.0,0.0,0.0,1742578461.4495578,2
1742578479,709313512,0.0084510827437043,-0.0336455628275871,-0.3797635436058044,0.924432933330536,0.4459860324859619,-0.1476147323846817,1.3487107753753662,-0.931640625,0.63006591796875,0.7298583984375,1,-4.179999828338623,0.7699999809265137,0.5299999713897705,1,-5.639999866485596,-0.2399999946355819,1.0099999904632568,5,1.350000023841858,21.209999084472656,6.21999979019165,0,2.240000009536743,0.5699999928474426,0.0299999993294477,0,0.7300000190734863,0.4099999964237213,-12.140000343322754,0,-1.5700000524520874,10.109999656677246,-6.659999847412109,0.2657859027385711,0.2615546584129333,0.0412555668094752,-0.0558162841129405,-0.7807277032236835,0.0,0.0,1.0,0.0,0.0,0.0,1742578479.7093136,2
1742578485,369553347,-0.0041483747772872,-0.0258091352880001,-0.4256485402584076,0.9045109748840332,0.5702396035194397,0.0255453009158372,0.9224972724914552,-0.4801025390625,-0.15655517578125,1.2293701171875,1,-4.260000228881836,-0.9900000095367432,2.2300000190734863,1,-5.480000019073486,0.0,-1.940000057220459,5,2.5,4.630000114440918,8.4399995803833,0,2.2100000381469727,0.6200000047683716,-3.390000104904175,0,0.6100000143051147,-0.2000000029802322,-1.7100000381469729,0,-2.880000114440918,10.039999961853027,7.760000228881836,0.2578970789909363,0.2670771479606628,0.0144855251369492,-0.0502419261162441,-0.8800425515100164,-0.7,0.0,1.0,0.0,0.0,0.0,1742578485.369553,2
1742578533,448405012,0.017200855538249,-0.0254507102072238,0.1480412185192108,0.9885040521621704,-0.0816588923335075,0.135097786784172,-0.7452455163002014,-0.40850830078125,0.27777099609375,0.9276123046875,1,-4.119999885559082,1.6200000047683716,0.6700000166893005,1,-5.650000095367432,0.2800000011920929,-2.890000104904175,4,2.7799999713897705,9.0600004196167,-0.6200000047683716,0,2.119999885559082,0.6299999952316284,-2.400000095367432,0,0.6600000262260437,-0.550000011920929,-2.869999885559082,0,-1.7599999904632568,3.7100000381469727,8.210000038146973,0.2662230134010315,0.2648918628692627,0.0265145577443373,-0.0554375234032008,0.296580923174616,0.0,0.0,1.0,0.0,0.0,0.0,1742578533.448405,3
1742578538,790533038,0.0043189884163439,-0.0228773206472396,0.174454778432846,0.9843899607658386,0.1152865290641784,0.0656241029500961,-1.700289607048035,-1.94000244140625,0.59930419921875,1.16290283203125,1,-4.099999904632568,0.8600000143051147,-0.1199999973177909,1,-5.46999979019165,0.4399999976158142,-8.829999923706055,4,2.6700000762939453,10.890000343322754,-4.650000095367432,0,2.0999999046325684,0.1099999994039535,-2.3399999141693115,0,0.6000000238418579,-0.3100000023841858,-2.2100000381469727,0,-1.4700000286102295,9.920000076293944,6.5,0.2573486566543579,0.2674942314624786,0.0005215872460093,-0.046564170969177,0.3507879968504345,-0.7,0.0,1.0,0.0,0.0,0.0,1742578538.790533,3
1742578545,368578796,0.0120582226663827,-0.0151269705966115,0.1927414983510971,0.9810588955879213,-0.0060893851332366,0.2687930166721344,0.0774057805538177,-0.00494384765625,0.0333251953125,0.95416259765625,1,-4.210000038146973,-0.4799999892711639,0.4099999964237213,1,-5.619999885559082,-0.1000000014901161,-5.25,4,0.5799999833106995,-6.260000228881836,2.0,0,2.0999999046325684,-0.7200000286102295,-0.5099999904632568,0,0.6600000262260437,-0.0700000002980232,-3.920000076293945,1,-5.690000057220459,-6.019999980926514,3.2100000381469727,0.2648918628692627,0.2648918628692627,0.0178399241734636,-0.0343358842768565,0.3876777651388985,0.0,0.0,1.0,0.0,0.0,0.0,1742578545.368579,3
1742578552,208143775,0.0018158039310947,-0.0248155444860458,0.1563072204589843,0.9873950481414796,0.0309297926723957,0.243510752916336,-1.7190964221954346,-1.0360107421875,0.34332275390625,1.4091796875,1,-4.159999847412109,0.1700000017881393,3.910000085830689,1,-5.449999809265137,0.2599999904632568,-4.820000171661377,4,2.809999942779541,10.100000381469728,-0.3600000143051147,0,2.059999942779541,-0.2399999946355819,-3.910000085830689,0,0.6200000047683716,-0.2300000041723251,-1.4700000286102295,1,-3.680000066757202,8.5,10.539999961853027,0.2562325596809387,0.2666533887386322,-0.0041770137313453,-0.0495934648006968,0.3141032310609023,0.0,0.0,1.0,0.0,0.0,0.0,1742578552.2081437,3
1742578560,408510873,0.0068605234846472,-0.0244277417659759,0.1883545368909835,0.981773316860199,-0.0995895713567733,0.0248509664088487,-1.728460431098938,-0.33837890625,0.1175537109375,0.9539794921875,1,-4.159999847412109,0.8600000143051147,-1.6299999952316284,1,-5.5,0.2300000041723251,-6.510000228881836,4,2.990000009536743,13.380000114440918,-0.6399999856948853,0,1.9800000190734863,-0.8899999856948853,2.220000028610229,0,0.6100000143051147,-0.3199999928474426,-1.0299999713897705,1,-0.1400000005960464,5.909999847412109,9.869999885559082,0.2589745223522186,0.2670771479606628,0.0042742832299078,-0.050570984050398,0.3789882886289537,0.28,0.0,1.0,0.0,0.0,0.0,1742578560.408511,3
1742578568,747970693,0.0223317313939332,-0.0178542528301477,0.1883930116891861,0.9816774725914,0.0203549042344093,0.2410986423492431,0.0524000823497772,-0.922119140625,0.2669677734375,0.897216796875,1,-4.380000114440918,0.209999993443489,0.5099999904632568,1,-5.690000057220459,0.4399999976158142,-1.1399999856948853,4,2.75,4.269999980926514,4.199999809265137,0,1.809999942779541,0.1500000059604644,-1.2000000476837158,0,0.8600000143051147,-0.3199999928474426,-7.239999771118164,2,-2.4100000858306885,4.230000019073486,4.380000114440918,0.2679046094417572,0.2545104026794433,0.0371615521000507,-0.0434822205562243,0.3783999729840495,0.0,0.0,1.0,0.0,0.0,0.0,1742578568.7479706,3
1742578585,368315956,-0.00106940662954,-0.0172344520688056,0.1868183612823486,0.9822427034378052,-0.5226837396621704,-0.1470733284950256,-1.6991357803344729,-2.00701904296875,0.86151123046875,0.96112060546875,1,-4.199999809265137,0.3899999856948852,0.3499999940395355,1,-5.420000076293945,0.9300000071525574,-6.53000020980835,4,2.2100000381469727,13.34000015258789,-0.6899999976158142,0,1.9600000381469729,-0.5799999833106995,-0.3600000143051147,0,0.5799999833106995,-0.4300000071525574,-0.3199999928474426,2,-3.039999961853028,10.140000343322754,10.119999885559082,0.2545104026794433,0.2683082818984985,-0.0085451458461566,-0.0334635050867668,0.3760446758428702,0.0,0.0,1.0,0.0,0.0,0.0,1742578585.368316,3
1742578590,207629646,0.0017387844854965,-0.0174993555992841,0.1776806861162185,0.9839310646057128,-0.4588493108749389,0.0172194130718708,-2.06457781791687,-2.58673095703125,0.803466796875,1.039306640625,1,-4.190000057220459,0.4199999868869781,-0.1400000005960464,1,-5.400000095367432,1.1100000143051147,-6.670000076293945,4,1.909999966621399,13.829999923706056,-1.440000057220459,0,1.9600000381469729,-0.5400000214576721,-0.2000000029802322,0,0.5699999928474426,-0.449999988079071,-0.3499999940395355,2,-0.9399999976158142,11.229999542236328,9.670000076293944,0.2533304691314697,0.268705278635025,-0.0027986305345336,-0.0350613990749735,0.3573631839893907,0.7,0.0,1.0,0.0,0.0,0.0,1742578590.2076297,3
1742578601,409133961,-0.0075196288526058,-0.0201021060347557,0.1130636110901832,0.993355929851532,-0.8744648694992065,0.1534033119678497,-2.1336452960968018,-2.33148193359375,0.271728515625,0.63006591796875,1,-4.210000038146973,0.1800000071525573,0.9800000190734864,1,-5.28000020980835,1.7400000095367432,-12.380000114440918,4,0.959999978542328,13.649999618530272,-4.789999961853027,0,2.0,0.4000000059604645,-2.650000095367432,0,0.550000011920929,-0.3400000035762787,-0.949999988079071,4,-5.110000133514404,18.670000076293945,4.909999847412109,0.2457231283187866,0.2694790363311767,-0.0195004646875049,-0.0382460231125906,0.2270371965760179,0.7,0.0,1.0,0.0,0.0,0.0,1742578601.409134,3
1742578606,967178884,-0.0012435596436262,-0.0239518154412508,0.0565442740917205,0.9981119632720948,0.0692597106099128,0.0105882165953516,-1.821592211723328,-2.10406494140625,0.28582763671875,1.188720703125,1,-4.130000114440918,0.209999993443489,1.1399999856948853,1,-5.46999979019165,0.4799999892711639,-4.159999847412109,4,1.4600000381469729,11.3100004196167,0.1800000071525573,0,2.049999952316284,-0.4199999868869781,-2.859999895095825,0,0.6000000238418579,-0.2899999916553497,-1.2699999809265137,5,-6.269999980926514,12.369999885559082,4.659999847412109,0.2573486566543579,0.2674942314624786,-0.0051970318521305,-0.0476906305561068,0.1133054373268935,0.0,0.0,1.0,0.0,0.0,0.0,1742578606.9671788,3
1742578728,911309066,-0.0042369528673589,-0.0331489294767379,-0.2005924880504608,0.9791046977043152,-0.0070912796072661,0.2608887851238251,-0.1052037551999092,-0.2655029296875,0.1666259765625,1.0960693359375,1,-4.260000228881836,0.3100000023841858,0.6399999856948853,1,-5.46999979019165,-0.0099999997764825,-6.130000114440918,4,1.4900000095367432,1.820000052452088,0.6299999952316284,0,2.109999895095825,0.4199999868869781,-1.870000004768372,0,0.6299999952316284,0.0099999997764825,-5.070000171661377,5,-5.71999979019165,1.9900000095367432,0.4600000083446502,0.2573486566543579,0.2662229835987091,0.0050131671068886,-0.0666617077121932,-0.4043213773414762,0.0,0.0,1.0,0.0,0.0,0.0,1742578728.911309,1
1742578735,246945198,-0.0028911484405398,-0.0271422080695629,-0.2153694927692413,0.9761510491371156,-0.0059599801898002,0.3645625412464142,-0.2182870805263519,-0.4573974609375,0.43487548828125,1.188720703125,1,-4.289999961853027,0.5099999904632568,1.9900000095367432,1,-5.489999771118164,-0.0900000035762786,-5.010000228881836,4,1.8799999952316284,2.3399999141693115,0.959999978542328,0,2.0899999141693115,0.8100000023841858,-4.539999961853027,0,0.6499999761581421,0.0099999997764825,-6.53000020980835,5,-6.239999771118164,3.680000066757202,0.3700000047683716,0.2584390342235565,0.2653422057628631,0.0060557618754146,-0.0542617436676039,-0.43446911314569,0.0,0.0,1.0,0.0,0.0,0.0,1742578735.2469451,1
1742578743,744933391,0.0008556200191378,-0.0073091397061944,-0.21846404671669,0.9758172631263732,0.0058450223878026,0.034105110913515,-0.0109049305319786,-0.07891845703125,0.12139892578125,1.0242919921875,1,-4.329999923706055,0.1800000071525573,1.5,1,-5.460000038146973,0.0,-5.789999961853027,4,2.8399999141693115,0.7699999809265137,0.6800000071525574,0,2.0799999237060547,0.209999993443489,-2.150000095367432,0,0.6299999952316284,0.0,-5.289999961853027,4,-0.8600000143051147,0.9700000286102296,0.6800000071525574,0.2567938268184662,0.2662229835987091,0.0048639145111776,-0.0138913717499897,-0.4405263532627725,0.0,0.0,1.0,0.0,0.0,0.0,1742578743.7449334,1
1742578754,125065473,-0.0005858334479853,-0.0183809176087379,-0.2557252645492553,0.9665746092796326,0.0886442959308624,1.0791319608688354,0.0127669088542461,-0.2933349609375,-0.26568603515625,0.9232177734375,1,-4.260000228881836,-0.9100000262260436,-2.440000057220459,1,-5.480000019073486,-0.2899999916553497,-1.5499999523162842,4,2.5799999237060547,-7.940000057220459,9.170000076293944,0,2.0999999046325684,-1.059999942779541,-0.4799999892711639,0,0.5899999737739563,-0.4199999868869781,-0.449999988079071,4,-1.75,-9.529999732971191,7.28000020980835,0.2578970789909363,0.2679046094417572,0.0082738343314729,-0.0358403538532568,-0.5174334664072017,0.0,0.0,1.0,0.0,0.0,0.0,1742578754.1250656,1
1742578762,588342933,0.002658428158611,-0.0018989400705322,-0.2564035952091217,0.9665642976760864,0.0309561882168054,-0.0231324639171361,-0.0339593663811683,-0.2772216796875,-0.0391845703125,0.708251953125,1,-4.389999866485596,0.2199999988079071,-1.2100000381469729,1,-5.489999771118164,0.0799999982118606,-4.429999828338623,4,2.75,1.950000047683716,4.460000038146973,0,1.9800000190734863,0.2899999916553497,-2.3299999237060547,0,0.6200000047683716,0.0399999991059303,-3.9700000286102295,4,-1.5299999713897705,1.8799999952316284,4.119999885559082,0.2584390342235565,0.2666533887386322,0.0061129279616994,-0.0023076363243579,-0.5186090181505563,0.5,0.0,1.0,0.0,0.0,0.0,1742578762.588343,1
1742578770,645732846,-0.0020715063437819,-0.029213324189186,-0.2617684006690979,0.9646862745285034,0.0999399423599243,-0.1113696917891502,-0.5564866662025452,-1.17041015625,1.47052001953125,0.81719970703125,1,-4.230000019073486,0.4099999964237213,6.289999961853027,1,-5.489999771118164,0.1199999973177909,-3.700000047683716,4,3.430000066757202,7.019999980926514,-6.53000020980835,0,2.1700000762939453,1.2400000095367432,-10.90999984741211,0,0.6200000047683716,-0.1000000014901161,-12.619999885559082,4,-0.4799999892711639,7.71999979019165,-8.520000457763672,0.2584390342235565,0.2666533887386322,0.0113164730510844,-0.0574795414215855,-0.5302661958431754,0.5,0.0,1.0,0.0,0.0,0.0,1742578770.6457329,1
1742578778,664214302,-0.00195110111963,-0.0296376515179872,-0.255749374628067,0.9662867784500122,-0.1882831454277038,0.4788158237934112,-1.3502651453018188,-3.923583984375,-0.932373046875,0.9166259765625,1,-4.260000228881836,0.0399999991059303,1.350000023841858,1,-5.480000019073486,0.0199999995529651,-4.789999961853027,4,3.440000057220459,6.360000133514404,0.7699999809265137,0,2.0999999046325684,0.2599999904632568,-3.7200000286102295,0,0.6299999952316284,0.0299999993294477,-5.929999828338623,4,-0.6399999856948853,6.880000114440918,1.6299999952316284,0.2578970789909363,0.2662229835987091,0.0114086104193921,-0.0583079611913186,-0.517811818645553,0.5,0.0,1.0,0.0,0.0,0.0,1742578778.6642144,1
1742578789,664563363,-0.0018177918391302,-0.0308700706809759,-0.2450954020023346,0.9690057039260864,-0.0324398018419742,0.1672891676425933,-0.8821406960487366,-2.77972412109375,-0.81500244140625,0.72418212890625,1,-4.25,0.0099999997764825,0.0199999995529651,1,-5.5,-0.0299999993294477,-5.21999979019165,4,3.5999999046325684,6.579999923706055,0.3000000119209289,0,2.0899999141693115,0.0099999997764825,0.7900000214576721,0,0.6299999952316284,-0.0299999993294477,-4.929999828338623,4,-1.2799999713897705,6.849999904632568,0.2300000041723251,0.2589745223522186,0.2662229835987091,0.0116310446695367,-0.0607549832281201,-0.4958315681725812,0.5,0.0,1.0,0.0,0.0,0.0,1742578789.6645634,1
1742578806,683923819,-0.0091407354921102,-0.0346352197229862,-0.3206965923309326,0.9465044140815736,-0.0262512993067502,0.5645447373390198,-0.258988082408905,-1.1400146484375,-0.44293212890625,0.9136962890625,1,-4.340000152587891,0.7200000286102295,2.880000114440918,1,-5.46999979019165,-0.209999993443489,-4.510000228881836,4,4.96999979019165,3.7699999809265137,0.4099999964237213,0,2.069999933242798,1.1799999475479126,-6.46999979019165,0,0.6399999856948853,0.0700000002980232,-6.920000076293945,4,-3.119999885559082,5.739999771118164,-0.5,0.2573486566543579,0.2657859325408935,0.0049238974185675,-0.0714884580720319,-0.6535406414532287,0.0,0.0,1.0,0.0,0.0,0.0,1742578806.6839235,1
1742578814,863796712,-0.0067129568196833,-0.0312915667891502,-0.3605447709560394,0.9321927428245544,-0.0157492384314537,-0.112122505903244,0.844362199306488,-2.84033203125,-2.789794921875,1.03619384765625,1,-4.25,0.0199999995529651,0.0700000002980232,1,-5.510000228881836,0.0,-5.639999866485596,4,5.449999809265137,7.090000152587891,0.3300000131130218,0,2.0899999141693115,0.0,0.6700000166893005,0,0.6299999952316284,0.0,-4.820000171661377,4,-3.3399999141693115,7.090000152587891,0.2399999946355819,0.259503573179245,0.2662229835987091,0.0100687681139801,-0.0632222946886579,-0.7384184019046768,0.5,0.0,1.0,0.0,0.0,0.0,1742578814.8637967,1
1742578833,946143232,-0.0084133632481098,-0.0182025860995054,-0.7346789240837097,0.6781185269355774,0.0581498630344867,0.0769806280732154,1.3532291650772097,-0.169189453125,0.0179443359375,1.036376953125,1,-4.320000171661377,-0.270000010728836,-1.1699999570846558,1,-5.550000190734863,-0.4600000083446502,-1.7000000476837158,4,2.190000057220459,6.210000038146973,10.779999732971191,0,2.119999885559082,0.3300000131130218,1.0700000524520874,0,0.6499999761581421,0.1400000005960464,-4.570000171661377,3,-4.760000228881836,8.8100004196167,-0.4300000071525574,0.2615546584129333,0.2653422057628631,0.015346736203065,-0.0370577442344657,-1.6511066209148324,0.5,0.0,1.0,0.0,0.0,0.0,1742578833.9461432,2
1742578843,563226214,-0.0001900652860058,-0.0327317602932453,-0.6217166781425476,0.7825579643249512,0.1521052718162536,0.2837319672107696,1.1218401193618774,-0.83514404296875,-0.34716796875,0.7598876953125,1,-4.230000019073486,0.6499999761581421,-3.240000009536743,1,-5.650000095367432,-0.0099999997764825,0.1800000071525573,6,3.900000095367432,20.040000915527344,8.739999771118164,0,2.180000066757202,0.0399999991059303,3.0199999809265137,0,0.7400000095367432,0.5,-7.28000020980835,3,-1.0,7.679999828338623,-3.2300000190734863,0.2662230134010315,0.2610516548156738,0.0404669449506736,-0.0514880792500276,-1.3437585560087288,0.5,0.0,1.0,0.0,0.0,0.0,1742578843.5632262,2
1742578853,45942632,-0.0063149970956146,-0.0078509962186217,-0.639976441860199,0.7683285474777222,0.1250086426734924,0.1838695704936981,0.4254411160945892,-0.62786865234375,-0.10748291015625,1.06439208984375,1,-4.340000152587891,0.2199999988079071,-1.7899999618530271,1,-5.420000076293945,-0.6800000071525574,-4.239999771118164,7,5.389999866485596,1.340000033378601,6.260000228881836,0,2.069999933242798,0.4799999892711639,0.1199999973177909,0,0.6299999952316284,0.4099999964237213,-4.769999980926514,3,-1.440000057220459,4.539999961853027,-0.050000000745058,0.2545104026794433,0.2662229835987091,0.0003449901897854,-0.020148551022118,-1.3890232655771615,0.0,0.0,1.0,0.0,0.0,0.0,1742578853.0459423,2
1742578862,742884967,-0.0012116306461393,-0.0292915310710668,-0.598663866519928,0.8004636764526367,0.1670163869857788,-0.0619383193552494,1.0642236471176147,-0.82965087890625,0.0618896484375,1.0133056640625,1,-4.25,0.6399999856948853,0.4600000083446502,1,-5.650000095367432,-0.449999988079071,-1.2599999904632568,8,1.4900000095367432,21.239999771118164,3.759999990463257,0,2.2300000190734863,0.7200000286102295,-1.5700000524520874,0,0.7200000286102295,0.5,-8.699999809265137,3,-1.659999966621399,10.460000038146973,-3.700000047683716,0.2662230134010315,0.2620511054992676,0.0331767011802386,-0.0483631836313543,-1.2851093132075957,0.0,0.0,1.0,0.0,0.0,0.0,1742578862.7428849,2
1742578872,2791680,-0.0071547017432749,-0.001724399277009,-0.632902979850769,0.7741961479187012,0.1089355498552322,0.2221549898386001,0.486113041639328,-0.5555419921875,-0.09686279296875,1.080322265625,1,-4.440000057220459,0.4799999892711639,-1.6200000047683716,1,-5.28000020980835,-0.699999988079071,-6.099999904632568,9,0.6399999856948853,2.5,5.809999942779541,0,2.049999952316284,0.7900000214576721,-0.8600000143051147,0,0.6499999761581421,0.8100000023841858,-5.300000190734863,3,-3.119999885559082,6.170000076293945,-0.270000010728836,0.2457231283187866,0.2653422057628631,-0.0088962592027582,-0.0117267794327615,-1.3705861026686206,0.3,0.0,1.0,0.0,0.0,0.0,1742578872.0027916,2
1742578878,482812933,-0.0061704907566308,-0.0166399031877517,-0.6277251839637756,0.778232753276825,0.0412492714822292,0.0056163617409765,1.2892768383026123,-0.7445068359375,-0.13531494140625,1.40496826171875,1,-4.329999923706055,-0.2199999988079071,-2.069999933242798,1,-5.519999980926514,-0.5299999713897705,0.1700000017881393,9,1.3200000524520874,6.53000020980835,10.149999618530272,0,2.1700000762939453,0.6600000262260437,-0.8100000023841858,0,0.6499999761581421,0.2899999916553497,-7.199999809265137,3,-2.289999961853028,10.020000457763672,-0.7400000095367432,0.2600260972976684,0.2653422057628631,0.0112930505057533,-0.0336525317506783,-1.3576990344133462,0.5,0.0,1.0,0.0,0.0,0.0,1742578878.482813,2
1742578886,925568569,-0.0044881771318614,-0.0180790647864341,-0.6432754993438721,0.7654081583023071,-0.037886057049036,0.0557865351438522,1.224348545074463,-1.55291748046875,-1.5380859375,1.0279541015625,1,-4.28000020980835,0.7900000214576721,-0.2599999904632568,1,-5.610000133514404,-1.2999999523162842,0.6000000238418579,9,5.579999923706055,18.170000076293945,5.289999961853027,0,2.2100000381469727,1.0499999523162842,-4.460000038146973,0,0.6899999976158142,0.6299999952316284,-12.119999885559082,3,-1.0700000524520874,11.779999732971191,-1.7200000286102295,0.2644349038600921,0.2635011374950409,0.0163989756623719,-0.0334562371574876,-1.3981035244591902,0.5,0.0,1.0,0.0,0.0,0.0,1742578886.9255686,2
1742578904,142312032,-0.0037078491877764,-0.0018467451445758,-0.6429629921913147,0.7658860683441162,0.108259305357933,0.2870695292949676,0.2368089854717254,-1.06658935546875,0.1329345703125,0.99774169921875,1,-4.420000076293945,0.7200000286102295,-3.660000085830689,1,-5.300000190734863,0.0,-7.519999980926514,10,3.3399999141693115,4.340000152587891,2.5299999713897705,0,2.0199999809265137,0.5600000023841858,-0.1000000014901161,0,0.6100000143051147,0.4399999976158142,-4.400000095367432,3,-4.0,4.449999809265137,2.5999999046325684,0.2470532208681106,0.2670771479606628,-0.0033049038879482,-0.0075968854453036,-1.3967231934133415,0.0,0.0,1.0,0.0,0.0,0.0,1742578904.142312,2
1742578916,21926903,-0.0159520003944635,-0.0242203958332538,-0.6609258651733398,0.7498906254768372,-0.1722634881734848,0.3231784403324127,0.526828408241272,-0.12451171875,0.03863525390625,0.8023681640625,1,-4.320000171661377,-0.7300000190734863,-0.050000000745058,1,-5.510000228881836,-0.1700000017881393,-0.949999988079071,9,5.949999809265137,3.990000009536743,7.679999828338623,0,2.109999895095825,0.25,-0.6200000047683716,0,0.6100000143051147,-0.0099999997764825,-4.369999885559082,2,-1.4900000095367432,7.739999771118164,3.289999961853028,0.259503573179245,0.2670771479606628,0.0081047175290116,-0.0574430605346455,-1.4450778665877866,0.5,0.0,1.0,0.0,0.0,0.0,1742578916.0219269,2
1742578933,961858667,-0.0041073965840041,-0.0329146534204483,-0.6410759687423706,0.7667602896690369,-0.1299257725477218,0.0811903402209281,1.8776696920394893,-0.7027587890625,-0.302490234375,0.40594482421875,1,-4.28000020980835,0.2399999946355819,-0.7099999785423279,1,-5.659999847412109,-0.4900000095367431,0.0,10,2.940000057220459,19.6200008392334,6.829999923706055,0,2.200000047683716,0.4399999976158142,1.5299999713897705,0,0.699999988079071,0.4399999976158142,-6.559999942779541,2,-1.850000023841858,10.890000343322754,-3.2100000381469727,0.2666533887386322,0.2630243599414825,0.0359664708620182,-0.0557705113421332,-1.3937220757743058,0.5,0.0,1.0,0.0,0.0,0.0,1742578933.9618587,2
1742578954,801766687,0.0015949200605973,-0.0186916720122098,-0.0371156632900238,0.99913489818573,-0.2926084995269775,-0.0430553406476974,-1.3546172380447388,-3.099609375,0.882568359375,0.2618408203125,1,-4.199999809265137,0.5099999904632568,-0.1299999952316284,1,-5.460000038146973,0.3300000131130218,-5.03000020980835,10,2.8499999046325684,10.220000267028809,-1.440000057220459,0,2.0299999713897705,-0.5199999809265137,-1.25,0,0.5899999737739563,-0.3799999952316284,-1.5800000429153442,4,-5.449999809265137,6.340000152587891,9.350000381469728,0.2567938268184662,0.2679046094417572,0.0045777782842238,-0.0372412183562802,-0.0743467071044276,0.5,0.0,1.0,0.0,0.0,0.0,1742578954.8017666,3
1742578961,964884461,-0.0057990350760519,-0.0209382828325033,-0.0709488093852996,0.997243344783783,-0.4499286711215973,-0.0917934775352478,-1.1598721742630005,-0.51690673828125,-0.17669677734375,1.16290283203125,1,-4.159999847412109,0.8600000143051147,-1.5499999523162842,1,-5.409999847412109,0.9100000262260436,-12.119999885559082,10,3.75,10.75,-5.099999904632568,0,2.049999952316284,0.4199999868869781,-0.1099999994039535,0,0.5799999833106995,-0.25,-1.4800000190734863,4,-2.259999990463257,16.649999618530273,2.799999952316284,0.2539235949516296,0.2683082818984985,-0.0086029156052497,-0.0425968764736087,-0.1418672692070709,0.5,0.0,1.0,0.0,0.0,0.0,1742578961.9648843,3
1742578969,241753966,-0.0007992289611138,-0.0227164626121521,-0.0547709949314594,0.9982401728630066,-0.0440699383616447,-0.0052783512510359,-1.7169619798660278,-0.70037841796875,0.453369140625,1.04443359375,1,-4.179999828338623,0.4600000083446502,1.0700000524520874,1,-5.480000019073486,0.6399999856948853,-7.489999771118164,10,3.849999904632568,10.149999618530272,-1.0399999618530271,0,2.009999990463257,0.0299999993294477,-2.059999942779541,0,0.6000000238418579,-0.1700000017881393,-2.069999933242798,5,-5.449999809265137,13.720000267028809,5.940000057220459,0.2578970789909363,0.2674942314624786,0.0008936848587317,-0.0454561727159462,-0.1096454990368251,0.5,0.0,1.0,0.0,0.0,0.0,1742578969.241754,3
1742578977,705182998,0.0144754694774746,-0.0109443068504333,-0.1300872862339019,0.991336464881897,-0.1180848255753517,0.1871326565742492,-0.2310246527194976,-0.514892578125,-0.069580078125,1.01861572265625,1,-4.320000171661377,0.4399999976158142,2.470000028610229,1,-5.679999828338623,0.6800000071525574,-3.569999933242798,10,3.859999895095825,3.7799999713897705,0.0799999982118606,0,1.9700000286102293,0.6399999856948853,-5.550000190734863,0,0.8100000023841858,-0.0599999986588954,-9.539999961853027,6,-5.130000114440918,3.509999990463257,-0.1400000005960464,0.2674942016601562,0.2573486566543579,0.031557863502755,-0.017933793143242,-0.2612402527334731,0.5,0.0,1.0,0.0,0.0,0.0,1742578977.705183,3
1742578984,301845171,-0.0025459269527345,-0.0204651914536952,-0.079828180372715,0.9965953230857848,-0.0337347015738487,0.0494843423366546,-1.8939439058303835,-0.57147216796875,0.39642333984375,0.988037109375,1,-4.179999828338623,0.5199999809265137,0.0,1,-5.420000076293945,0.7400000095367432,-6.0,10,3.670000076293945,11.510000228881836,-1.0399999618530271,0,2.0199999809265137,0.0,-0.8199999928474426,0,0.5799999833106995,-0.4099999964237213,-2.369999885559082,6,-4.340000152587891,16.690000534057617,5.670000076293945,0.2545104026794433,0.2683082818984985,-0.0018086562921063,-0.0412091641535024,-0.1598232238400906,0.5,0.0,1.0,0.0,0.0,0.0,1742578984.301845,3
1742578998,354031391,-0.0098867248743772,-0.0165937580168247,-0.1395179629325866,0.990031123161316,-0.4640102088451385,-0.0354776307940483,-1.1891404390335083,-0.4976806640625,0.12322998046875,1.0382080078125,1,-4.139999866485596,1.1100000143051147,-6.510000228881836,1,-5.409999847412109,0.6200000047683716,-14.40999984741211,10,3.880000114440918,11.229999542236328,-4.929999828338623,0,2.039999961853028,0.4199999868869781,4.78000020980835,0,0.6000000238418579,-0.0599999986588954,1.4700000286102295,6,-0.1199999973177909,19.8700008392334,6.920000076293945,0.2539235949516296,0.2674942314624786,-0.0149561218700151,-0.0356229589521405,-0.2797353571902519,0.5,0.0,1.0,0.0,0.0,0.0,1742578998.354031,3
1742579022,600551039,-0.0140716591849923,-0.0214415285736322,-0.1763806492090225,0.9839878678321838,-0.1822535693645477,-0.0513384006917476,-1.5231562852859497,-0.20892333984375,0.00897216796875,1.37969970703125,1,-4.190000057220459,-0.1099999994039535,5.059999942779541,1,-5.380000114440918,0.2300000041723251,-8.569999694824219,10,0.8100000023841858,6.760000228881836,-3.380000114440918,0,2.119999885559082,0.8100000023841858,-4.190000057220459,0,0.6200000047683716,0.0799999982118606,-1.4900000095367432,7,-2.119999885559082,22.200000762939453,6.570000171661377,0.2521252036094665,0.2666533887386322,-0.0201527282413382,-0.0471778437919242,-0.3542589014091799,0.0,0.0,1.0,0.0,0.0,0.0,1742579022.6005511,3
1742579037,164607520,-0.0160511508584022,-0.0177296679466962,-0.2223826944828033,0.9746661186218262,-0.3889448642730713,0.0665758922696113,-1.2550734281539917,-0.24627685546875,-0.2208251953125,1.229736328125,1,-4.139999866485596,0.5799999833106995,-3.799999952316284,1,-5.329999923706055,0.8999999761581421,-16.290000915527344,10,1.690000057220459,9.350000381469728,-6.579999923706055,0,2.069999933242798,0.7400000095367432,2.930000066757202,0,0.6100000143051147,0.1000000014901161,1.3799999952316284,8,-0.8799999952316284,21.93000030517578,6.260000228881836,0.2490019649267196,0.2670771479606628,-0.0151176272675541,-0.0394303160760495,-0.3923951117516983,0.5,0.0,1.0,0.0,0.0,0.0,1742579037.1646075,3
1742579045,60186245,-0.011897524818778,-0.0201138462871313,-0.2196280062198639,0.9753037691116332,-0.3815536201000213,-0.0625840723514556,-1.4247312545776367,-1.51593017578125,0.25836181640625,1.04644775390625,1,-4.130000114440918,0.7900000214576721,0.3400000035762787,1,-5.340000152587891,1.1100000143051147,-14.300000190734863,10,2.119999885559082,11.210000038146973,-10.510000228881836,0,2.049999952316284,0.5299999713897705,-0.0199999995529651,0,0.5899999737739563,0.0399999991059303,-2.1700000762939453,9,-2.220000028610229,21.71999931335449,3.1600000858306885,0.2496391236782074,0.2679046094417572,-0.0143869960433507,-0.0444749401058269,-0.442669312134189,0.5,0.0,1.0,0.0,0.0,0.0,1742579045.060186,3
1742579052,59950218,0.0050491713918745,-0.0243049524724483,-0.2082491964101791,0.9777607917785645,-0.268049955368042,0.2282171100378036,-0.5545474290847778,-0.48651123046875,0.263671875,1.01055908203125,1,-4.25,0.2300000041723251,2.470000028610229,1,-5.639999866485596,0.6700000166893005,-2.690000057220459,10,0.4900000095367431,5.25,0.3199999928474426,0,1.9600000381469729,0.3799999952316284,-1.7899999618530271,0,0.699999988079071,-0.8799999952316284,-4.730000019073486,10,-4.699999809265137,1.7999999523162842,7.46999979019165,0.2657859027385711,0.2630243599414825,0.0200187380644703,-0.045441524707177,-0.4201553611164504,0.0,0.0,1.0,0.0,0.0,0.0,1742579052.05995,3
1742579337,573534257,-0.0079672196879982,-0.0199421122670173,-0.5685569643974304,0.8223636150360107,0.0509857423603534,0.4564935266971588,0.3594211935997009,-1.13909912109375,-0.36639404296875,1.294189453125,1,-4.369999885559082,0.1400000005960464,-0.1000000014901161,1,-5.46999979019165,0.0,-4.539999961853027,12,0.550000011920929,3.0299999713897705,2.059999942779541,0,2.0,0.1299999952316284,0.2399999946355819,0,0.6200000047683716,0.0,-4.590000152587891,12,-3.2100000381469727,2.940000057220459,1.9800000190734863,0.2573486566543579,0.2666533887386322,0.0095810944661111,-0.041871205230263,-1.210020787810817,0.3,0.0,1.0,0.0,0.0,0.0,1742579337.5735345,1
1742579345,223328371,0.0006883617606945,-0.0094725089147686,-0.5673846006393433,0.8233981728553772,-0.0217657089233398,0.0735815986990928,0.0954978391528129,-0.22760009765625,0.03057861328125,1.04974365234375,1,-4.289999961853027,0.1599999964237213,-1.309999942779541,1,-5.480000019073486,0.0599999986588954,-4.820000171661377,12,0.7400000095367432,1.0700000524520874,1.3899999856948853,0,2.049999952316284,0.0799999982118606,0.4399999976158142,0,0.6299999952316284,0.0,-4.949999809265137,12,-3.190000057220459,0.4900000095367431,1.7000000476837158,0.2578970789909363,0.2662229835987091,0.0118842875584831,-0.0148187036839086,-1.2068026833949104,0.0,0.0,1.0,0.0,0.0,0.0,1742579345.2233284,1
1742579356,312870989,-0.0138672208413481,-0.0279851034283638,-0.5508660674095154,0.834009051322937,-0.0259514283388853,0.0770832300186157,-0.0255062654614448,-0.5035400390625,-0.2431640625,0.76318359375,1,-4.320000171661377,0.4099999964237213,0.6899999976158142,1,-5.489999771118164,0.0,-5.53000020980835,12,0.6600000262260437,3.7300000190734863,1.190000057220459,0,2.0299999713897705,0.4399999976158142,-0.050000000745058,0,0.6399999856948853,0.0,-4.869999885559082,12,-3.2799999713897705,4.340000152587891,1.1399999856948853,0.2584390342235565,0.2657859325408935,0.0077162133054523,-0.0619973305151794,-1.167686843152956,0.0,0.0,1.0,0.0,0.0,0.0,1742579356.312871,1
1742579363,13345154,-0.0120944017544388,-0.0268309190869331,-0.5507777333259583,0.834132969379425,-0.1062801331281662,0.368312805891037,-0.9292337894439696,-1.94549560546875,0.8089599609375,1.42767333984375,1,-4.25,0.1700000017881393,3.0299999713897705,1,-5.489999771118164,0.0,-3.549999952316284,12,0.8399999737739563,4.630000114440918,0.9300000071525574,0,2.119999885559082,0.6000000238418579,-6.909999847412109,0,0.6299999952316284,-0.0199999995529651,-7.730000019073486,12,-2.8399999141693115,5.199999809265137,0.5400000214576721,0.2584390342235565,0.2662229835987091,0.0093950666442342,-0.0581164722291033,-1.1674366256496798,0.3,0.0,1.0,0.0,0.0,0.0,1742579363.0133452,1
1742579372,612700693,-0.0109141608700156,-0.0274501051753759,-0.5567713379859924,0.8301404714584351,-0.0325707867741584,0.1134947687387466,-0.2234785854816436,-0.9173583984375,-0.4991455078125,0.947021484375,1,-4.260000228881836,0.0,-0.0099999997764825,1,-5.5,0.0,-5.809999942779541,12,0.75,3.9600000381469727,0.6100000143051147,0,2.0799999237060547,0.0,0.3400000035762787,0,0.6399999856948853,-0.0099999997764825,-4.769999980926514,12,-3.2100000381469727,4.130000114440918,0.7200000286102295,0.2589745223522186,0.2657859325408935,0.0124674041892767,-0.0577603823403192,-1.1819332970700156,0.3,0.0,1.0,0.0,0.0,0.0,1742579372.6127007,1
1742579384,12352607,-0.0135071091353893,-0.0277624428272247,-0.6039998531341553,0.7963862419128418,-0.0098695233464241,0.0459387004375457,0.1311400532722473,-0.73846435546875,0.2135009765625,0.6412353515625,1,-4.260000228881836,0.050000000745058,-0.1099999994039535,1,-5.489999771118164,0.0199999995529651,-6.210000038146973,12,1.0199999809265137,4.309999942779541,0.4199999868869781,0,2.0799999237060547,0.0099999997764825,0.6499999761581421,0,0.6399999856948853,0.0,-4.460000038146973,12,-3.680000066757202,4.590000152587891,0.3300000131130218,0.2584390342235565,0.2657859325408935,0.0120456532098433,-0.0605728731408469,-1.2981086618714404,0.3,0.0,1.0,0.0,0.0,0.0,1742579384.0123527,1
1742579389,862156092,-0.0146605316549539,-0.0280693620443344,-0.6009713411331177,0.7986429929733276,-0.0485669039189815,0.6433087587356567,0.3363990783691406,-2.347412109375,-0.73443603515625,1.5648193359375,1,-4.190000057220459,1.2300000190734863,-1.7400000095367432,1,-5.5,-0.270000010728836,-8.630000114440918,12,1.1200000047683716,5.110000133514404,-8.369999885559082,0,2.150000095367432,0.9800000190734864,0.0,0,0.6299999952316284,0.0099999997764825,-8.289999961853027,12,-3.490000009536743,5.480000019073486,-7.380000114440918,0.2589745223522186,0.2662229835987091,0.0103410751318603,-0.0624965928742885,-1.2905096224509172,0.3,0.0,1.0,0.0,0.0,0.0,1742579389.8621562,1
1742579396,952287334,-0.0150743126869201,-0.0284262523055076,-0.6035366654396057,0.7966858148574829,0.0171414781361818,0.562030553817749,0.1499859392642974,-1.43646240234375,-0.1915283203125,1.13543701171875,1,-4.309999942779541,0.6700000166893005,-2.119999885559082,1,-5.46999979019165,0.0099999997764825,-5.119999885559082,12,0.6000000238418579,4.650000095367432,2.8399999141693115,0,2.049999952316284,0.5400000214576721,0.0099999997764825,0,0.6200000047683716,0.0099999997764825,-4.75,12,-3.950000047683716,4.340000152587891,2.990000009536743,0.2573486566543579,0.2666533887386322,0.0103145809298612,-0.0635321155913716,-1.2969707778030248,0.0,0.0,1.0,0.0,0.0,0.0,1742579396.9522874,1
1742579401,652256758,-0.0150973433628678,-0.0285602044314146,-0.6032651662826538,0.7968862056732178,-0.0250813271850347,0.2625674605369568,0.3039380013942718,-1.5875244140625,0.440185546875,0.70220947265625,1,-4.260000228881836,0.0599999986588954,-0.6299999952316284,1,-5.489999771118164,0.0,-6.860000133514404,12,0.8199999928474426,4.380000114440918,1.25,0,2.0799999237060547,0.0199999995529651,0.6000000238418579,0,0.6399999856948853,0.0,-3.9800000190734863,12,-3.819999933242798,4.849999904632568,0.7799999713897705,0.2584390342235565,0.2657859325408935,0.0104183930208579,-0.0637770955478666,-1.2963001860331052,0.3,0.0,1.0,0.0,0.0,0.0,1742579401.6522567,1
1742579407,712113436,-0.0143923182040452,-0.0277463253587484,-0.6057979464530945,0.7950043678283691,0.0498083867132663,0.4336275160312652,0.4296035766601562,-2.13848876953125,0.24041748046875,0.6708984375,1,-4.190000057220459,0.9700000286102296,-6.019999980926514,1,-5.519999980926514,-0.1700000017881393,-8.380000114440918,12,0.75,5.130000114440918,-1.3700000047683716,0,2.119999885559082,0.6899999976158142,-0.4199999868869781,0,0.6499999761581421,0.0,-3.359999895095825,12,-3.609999895095825,5.25,-0.9200000166893004,0.2600260972976684,0.2653422057628631,0.0107540217065078,-0.0615935111141686,-1.3026126918254746,0.3,0.0,1.0,0.0,0.0,0.0,1742579407.7121134,1
1742579432,871684468,-0.0175684336572885,-0.0240447223186492,-0.8261482119560242,0.5626654028892517,0.0395274311304092,-0.0367504097521305,0.5290591716766357,-0.172119140625,-0.02032470703125,1.02227783203125,1,-4.21999979019165,0.8399999737739563,-2.440000057220459,1,-5.5,0.050000000745058,-0.7200000286102295,13,1.5800000429153442,20.76000022888184,8.850000381469727,0,2.180000066757202,0.2300000041723251,3.390000104904175,0,0.6399999856948853,0.0099999997764825,-6.349999904632568,12,-4.480000019073486,3.049999952316284,-1.9800000190734863,0.2589745223522186,0.2657859325408935,0.0199915070029712,-0.0561159737674945,-1.946336766830725,0.0,0.0,1.0,0.0,0.0,0.0,1742579432.8716846,2
1742579444,671602006,-0.0187024995684623,-0.0290591903030872,-0.776517927646637,0.6291467547416687,0.0540104992687702,-0.1223483011126518,1.2756835222244265,-0.16094970703125,-0.0223388671875,0.998291015625,1,-4.190000057220459,0.9200000166893004,-2.869999885559082,1,-5.519999980926514,0.1000000014901161,-1.820000052452088,14,5.46999979019165,20.040000915527344,9.899999618530272,0,2.200000047683716,0.550000011920929,4.650000095367432,0,0.6399999856948853,0.0399999991059303,-5.480000019073486,12,-6.0,5.809999942779541,-3.819999933242798,0.2600260972976684,0.2657859325408935,0.0216450557110658,-0.0656578073572425,-1.780425757020335,0.0,0.0,1.0,0.0,0.0,0.0,1742579444.671602,2
1742579451,371727512,-0.0107550304383039,-0.0174586996436119,-0.7855479121208191,0.6184610724449158,0.1102540120482444,0.1530151516199112,0.6149370670318604,-1.00653076171875,-0.53778076171875,1.002685546875,1,-4.300000190734863,0.2000000029802322,-3.190000057220459,1,-5.53000020980835,-0.3499999940395355,-2.4800000190734863,15,0.8500000238418579,6.889999866485596,9.369999885559082,0,2.109999895095825,0.1199999973177909,1.7100000381469729,0,0.6499999761581421,0.1700000017881393,-4.159999847412109,12,-6.199999809265137,5.519999980926514,0.3799999952316284,0.2605421543121338,0.2653422057628631,0.0141371023518787,-0.0385017473155527,-1.807968345305756,0.3,0.0,1.0,0.0,0.0,0.0,1742579451.3717277,2
1742579458,171320732,-0.0108170500025153,-0.0201900880783796,-0.7796803712844849,0.625758707523346,0.2103811204433441,0.0676512941718101,0.4495221972465515,-0.9510498046875,-0.5262451171875,1.083251953125,1,-4.289999961853027,0.2000000029802322,-3.430000066757202,1,-5.579999923706055,-0.5899999737739563,-2.289999961853028,15,3.829999923706055,6.860000133514404,9.869999885559082,0,2.0899999141693115,-0.050000000745058,3.4600000381469727,0,0.6499999761581421,0.0799999982118606,-3.369999885559082,12,-5.75,5.269999980926514,0.6000000238418579,0.2630243599414825,0.2653422057628631,0.0179628224054988,-0.0421484082164384,-1.789342667668441,0.3,0.0,1.0,0.0,0.0,0.0,1742579458.171321,2
1742579466,111264409,-0.0108832828700542,-0.0220701545476913,-0.7852839827537537,0.6186466217041016,0.0841632857918739,0.0217763967812061,0.8883087635040283,-0.26806640625,0.00732421875,0.99334716796875,1,-4.28000020980835,0.2000000029802322,-2.609999895095825,1,-5.610000133514404,-0.6700000166893005,-1.850000023841858,16,2.2799999713897705,7.630000114440918,10.43000030517578,0,2.0799999237060547,-0.0199999995529651,2.75,0,0.6499999761581421,0.0700000002980232,-3.630000114440918,12,-4.980000019073486,5.210000038146973,0.8999999761581421,0.2644349038600921,0.2653422057628631,0.0212193821535405,-0.044414789744664,-1.8075492010309453,0.3,0.0,1.0,0.0,0.0,0.0,1742579466.1112645,2
1742579478,271213201,-0.0164674948900938,-0.0278442557901144,-0.7656567096710205,0.6424354910850525,0.2594627141952514,-0.1576933413743972,0.541593074798584,-0.22906494140625,-0.1790771484375,1.201904296875,1,-4.300000190734863,0.3899999856948852,1.0,1,-5.519999980926514,-0.0399999991059303,-1.5099999904632568,17,4.03000020980835,19.82999992370605,8.170000076293945,0,2.200000047683716,0.9300000071525574,-0.449999988079071,0,0.6399999856948853,0.1099999994039535,-8.199999809265137,12,-4.110000133514404,7.880000114440918,-4.210000038146973,0.2600260972976684,0.2657859325408935,0.0215214033323303,-0.0610310531077668,-1.7460272938434418,0.0,0.0,1.0,0.0,0.0,0.0,1742579478.2712133,2
1742579484,410736836,-0.0113542862236499,-0.0198071673512458,-0.7749884724617004,0.6315628290176392,-0.0073750033043324,0.1028274521231651,1.0337936878204346,-0.624755859375,-0.50244140625,0.92559814453125,1,-4.309999942779541,0.0799999982118606,-3.240000009536743,1,-5.539999961853027,-0.3499999940395355,-2.4800000190734863,18,1.6399999856948853,9.119999885559082,11.09000015258789,0,2.109999895095825,0.1599999964237213,2.4200000762939453,0,0.6499999761581421,0.1400000005960464,-3.180000066757202,12,-4.110000133514404,6.46999979019165,0.9900000095367432,0.2610516548156738,0.2653422057628631,0.0163743704923153,-0.0426307346979382,-1.7743823733299078,0.3,0.0,1.0,0.0,0.0,0.0,1742579484.4107368,2
1742579494,270766405,-0.0086706215515732,-0.0184474680572748,-0.7781131267547607,0.6277933716773987,0.0948482379317283,0.0579934045672416,0.7436585426330566,-0.479736328125,-0.47332763671875,1.0103759765625,1,-4.309999942779541,0.1000000014901161,-2.5899999141693115,1,-5.53000020980835,-0.1500000059604644,-2.740000009536743,18,2.9100000858306885,6.159999847412109,9.220000267028809,0,2.0899999141693115,-0.0299999993294477,2.6700000762939453,0,0.6399999856948853,0.0299999993294477,-3.849999904632568,11,-0.2399999946355819,4.980000019073486,0.6100000143051147,0.2605421543121338,0.2657859325408935,0.0178346472300372,-0.0366640589784534,-1.784154366513099,0.3,0.0,1.0,0.0,0.0,0.0,1742579494.2707665,2
1742579500,10510486,-0.0098919533193111,-0.0176721047610044,-0.7671692967414856,0.6411249041557312,-0.0343107394874095,0.0521256662905216,0.7206069827079773,-0.6844482421875,-0.6544189453125,1.162353515625,1,-4.329999923706055,0.0199999995529651,-3.150000095367432,1,-5.5,-0.1599999964237213,-2.7699999809265137,19,1.6399999856948853,8.619999885559082,9.81999969482422,0,2.0999999046325684,0.0700000002980232,2.470000028610229,0,0.6299999952316284,0.0199999995529651,-2.869999885559082,12,-5.869999885559082,5.079999923706055,1.659999966621399,0.2589745223522186,0.2662229835987091,0.0144418806086262,-0.0378466931296798,-1.7495969227150263,0.3,0.0,1.0,0.0,0.0,0.0,1742579500.0105104,2
1742579508,871011897,-0.0061531458050012,-0.0103756729513406,-0.2669096291065216,0.963646113872528,-0.1818573921918869,-0.0065223826095461,-0.4089194536209106,-0.23638916015625,-0.22027587890625,0.9814453125,1,-4.300000190734863,-0.25,-1.2300000190734863,1,-5.420000076293945,0.4900000095367431,-10.989999771118164,19,3.690000057220459,2.6600000858306885,-2.809999942779541,0,2.059999942779541,0.25,1.559999942779541,0,0.6100000143051147,-0.0599999986588954,-1.3700000047683716,12,-1.3600000143051147,1.190000057220459,2.8399999141693115,0.2545104026794433,0.2670771479606628,-0.0063219317302879,-0.0232837253172566,-0.5403365181417085,0.3,0.0,1.0,0.0,0.0,0.0,1742579508.871012,3
1742579515,73525475,-0.0111787607893347,-0.026763429865241,-0.3247758746147156,0.945346176624298,-0.005563436076045,-0.1068558022379875,-0.747151792049408,-0.13970947265625,0.0670166015625,0.7730712890625,1,-4.190000057220459,-0.1199999973177909,4.940000057220459,1,-5.46999979019165,-0.1500000059604644,-4.699999809265137,20,0.1299999952316284,1.2400000095367432,-0.7799999713897705,0,2.180000066757202,1.0,-4.550000190734863,0,0.6299999952316284,0.0299999993294477,-4.050000190734863,14,-5.260000228881836,21.799999237060547,5.449999809265137,0.2573486566543579,0.2662229835987091,-0.0037576694501222,-0.0578949326613461,-0.6617297564830447,0.0,0.0,1.0,0.0,0.0,0.0,1742579515.0735254,3
1742579522,870384443,6.577817839570343e-05,-0.014044864103198,-0.3044652044773102,0.952419936656952,-0.0628240257501602,0.1338610351085662,-0.3261294066905975,-1.32623291015625,0.0142822265625,1.1949462890625,1,-4.25,0.1299999952316284,-0.25,1,-5.5,0.0700000002980232,-5.769999980926514,19,4.25,3.660000085830689,1.1299999952316284,0,2.0799999237060547,-0.0099999997764825,-0.1700000017881393,0,0.6299999952316284,-0.050000000745058,-3.369999885559082,14,-6.139999866485596,2.7699999809265137,3.400000095367432,0.2589745223522186,0.2662229835987091,0.0086808485762974,-0.0267163409012523,-0.6189329011619609,0.3,0.0,1.0,0.0,0.0,0.0,1742579522.8703845,3
1742579534,609926032,-0.0051156962290406,-0.0169849526137113,-0.3012098371982574,0.9533928632736206,-0.1526680588722229,-0.0174497570842504,-0.5532517433166504,-1.12811279296875,0.347900390625,0.864990234375,1,-4.239999771118164,0.1500000059604644,0.3499999940395355,1,-5.480000019073486,0.2399999946355819,-7.019999980926514,19,4.820000171661377,5.53000020980835,-1.3200000524520874,0,2.0299999713897705,-0.0099999997764825,-1.0800000429153442,0,0.6200000047683716,-0.1000000014901161,-2.0899999141693115,14,-5.25,4.139999866485596,6.349999904632568,0.2578970789909363,0.2666533887386322,0.0004778337453035,-0.0354759021030559,-0.6120302120979255,0.3,0.0,1.0,0.0,0.0,0.0,1742579534.609926,3
1742579541,310047881,-0.0041193314827978,-0.0186532400548458,-0.3037896752357483,0.9525476098060608,-0.0754749327898025,0.0779731422662735,-1.0130832195281982,-0.406494140625,0.38140869140625,1.0023193359375,1,-4.25,-0.0599999986588954,2.940000057220459,1,-5.489999771118164,0.1599999964237213,-4.159999847412109,19,4.510000228881836,5.300000190734863,0.3499999940395355,0,2.0299999713897705,-0.0700000002980232,-2.9600000381469727,0,0.6200000047683716,-0.0700000002980232,-2.6600000858306885,14,-4.599999904632568,4.559999942779541,8.979999542236328,0.2584390342235565,0.2666533887386322,0.0034881363516765,-0.0380481987179564,-0.6175183791759852,0.3,0.0,1.0,0.0,0.0,0.0,1742579541.310048,3
1742579564,369635070,-0.0064766672439873,-0.0227135885506868,-0.2440390437841415,0.9694777727127076,-0.1724096536636352,-0.1355088353157043,-1.3324528932571411,-0.16021728515625,-0.0113525390625,1.24053955078125,1,-4.199999809265137,0.4199999868869781,-1.0700000524520874,1,-5.510000228881836,0.0599999986588954,-6.070000171661377,20,0.7599999904632568,6.699999809265137,-0.2399999946355819,0,2.039999961853028,0.209999993443489,1.5700000524520874,0,0.6200000047683716,-0.1199999973177909,-1.350000023841858,15,-4.440000057220459,12.640000343322754,7.659999847412109,0.259503573179245,0.2666533887386322,-0.0014736080587578,-0.0472193030685511,-0.4931629636169521,0.0,0.0,1.0,0.0,0.0,0.0,1742579564.369635,3
1742579569,309783353,-0.010389132425189,-0.024147655814886,-0.3486393690109253,0.9368882775306702,-0.0669777542352676,-0.1447761207818985,-0.9983752369880676,-0.447509765625,0.4984130859375,0.96881103515625,1,-4.170000076293945,0.5899999737739563,3.109999895095825,1,-5.480000019073486,0.209999993443489,-6.519999980926514,20,2.450000047683716,7.760000228881836,-3.609999895095825,0,2.039999961853028,0.1500000059604644,-1.6100000143051147,0,0.6299999952316284,0.0299999993294477,-2.900000095367432,16,-4.179999828338623,18.299999237060547,7.590000152587891,0.2578970789909363,0.2662229835987091,-0.0026328986116355,-0.0525155677920657,-0.7124260599451012,0.0,0.0,1.0,0.0,0.0,0.0,1742579569.3097837,3
