ROS2 Timestamp (sec),ROS2 Timestamp (nanosec),orientation_x,orientation_y,orientation_z,orientation_w,angular_velocity_x,angular_velocity_y,angular_velocity_z,linear_acceleration_x,linear_acceleration_y,linear_acceleration_z,left_hip_enc_rev,left_hip_pos,left_hip_vel,left_hip_iq,left_knee_enc_rev,left_knee_pos,left_knee_vel,left_knee_iq,left_wheel_enc_rev,left_wheel_pos,left_wheel_vel,left_wheel_iq,right_hip_enc_rev,right_hip_pos,right_hip_vel,right_hip_iq,right_knee_enc_rev,right_knee_pos,right_knee_vel,right_knee_iq,right_wheel_enc_rev,right_wheel_pos,right_wheel_vel,right_wheel_iq,left_leg_length,right_leg_length,roll,pitch,yaw,cmd_forward,cmd_left,cmd_up,cmd_roll,cmd_pitch,cmd_leg_split,Unified_Timestamp,label
1742551466,116130334,0.012662884,0.017417844,0.753325343,-0.657295465,-0.011507624,-0.00986495,0.0,0.044494629,0.013366699,1.027404785,1,-4.300000191,0.0,0.50999999,1,-5.380000114,0.0,-7.360000134,19,3.140000105,0.0,-0.319999993,0,2.079999924,0.0,0.230000004,0,0.680000007,0.0,-6.489999771,16,-3.569999933,0.0,-0.439999998,0.252125204,0.263971299,0.009604708,-0.041988219,-1.706941031,0.0,0.0,1.0,0.0,0.0,0.0,1742551466.0,0
1742551466,175172548,0.012715418,0.017460817,0.753324389,-0.657294333,0.014675888,-0.008821084,0.0,0.036804199,0.011535645,1.006347656,1,-4.300000191,0.0,0.50999999,1,-5.380000114,0.0,-7.28000021,19,3.140000105,0.0,-0.25999999,0,2.079999924,0.0,0.209999993,0,0.680000007,0.0,-6.539999962,16,-3.569999933,-0.01,-0.460000008,0.252125204,0.263971299,0.009600439,-0.042123918,-1.706941953,0.0,0.0,1.0,0.0,0.0,0.0,1742551466.0,0
1742551466,215622936,0.012695053,0.017493399,0.753324211,-0.657294154,-0.006258474,-0.009866299,0.0,0.045227051,0.007141113,1.010009766,1,-4.300000191,0.0,0.550000012,1,-5.380000114,0.0,-7.28000021,19,3.140000105,0.01,-0.319999993,0,2.079999924,0.0,0.200000003,0,0.680000007,0.0,-6.570000172,16,-3.569999933,0.0,-0.519999981,0.252125204,0.263971299,0.009676374,-0.042136066,-1.706943762,0.0,0.0,1.0,0.0,0.0,0.0,1742551466.0,0
1742551466,275680083,0.012703009,0.017513797,0.753323674,-0.657294095,-0.004163656,0.001655973,0.0,0.051635742,0.018493652,1.020812988,1,-4.300000191,0.0,0.5,1,-5.380000114,0.0,-7.269999981,19,3.140000105,0.0,-0.239999995,0,2.079999924,0.0,0.200000003,0,0.680000007,0.0,-6.550000191,16,-3.569999933,0.0,-0.360000014,0.252125204,0.263971299,0.009696664,-0.042174887,-1.706943792,0.0,0.0,1.0,0.0,0.0,0.0,1742551466.0,0
1742551466,315710349,0.012729528,0.017532624,0.753323078,-0.657293677,-0.004163259,-0.003584138,0.0,0.039550781,0.011535645,1.016235352,1,-4.300000191,0.0,0.519999981,1,-5.380000114,0.0,-7.260000229,19,3.140000105,-0.01,-0.239999995,0,2.079999924,0.0,0.209999993,0,0.680000007,0.0,-6.570000172,16,-3.569999933,0.0,-0.379999995,0.252125204,0.263971299,0.009690179,-0.042239621,-1.706943702,0.0,0.0,1.0,0.0,0.0,0.0,1742551466.0,0
1742551466,375600833,0.012754526,0.017515464,0.753322899,-0.657293797,0.01467597,0.004797461,0.0,0.044677734,0.012634277,1.020812988,1,-4.300000191,0.0,0.50999999,1,-5.380000114,0.0,-7.28000021,19,3.140000105,0.0,-0.270000011,0,2.079999924,0.0,0.209999993,0,0.680000007,0.0,-6.539999962,16,-3.569999933,0.0,-0.349999994,0.252125204,0.263971299,0.009631404,-0.042254737,-1.706942042,0.0,0.0,1.0,0.0,0.0,0.0,1742551466.0,0
1742551466,418088218,0.012748573,0.01745102,0.753323615,-0.65729475,-0.008370299,0.002708121,0.0,0.049255371,0.014831543,1.014221191,1,-4.300000191,0.0,0.50999999,1,-5.380000114,0.0,-7.260000229,19,3.140000105,0.0,-0.310000002,0,2.079999924,0.0,0.189999998,0,0.680000007,0.0,-6.53000021,16,-3.569999933,0.0,-0.430000007,0.252125204,0.263971299,0.009542015,-0.042161019,-1.706939136,0.0,0.0,1.0,0.0,0.0,0.0,1742551466.0,0
1742551466,475803750,0.012791388,0.017435906,0.753323436,-0.657294691,3.15e-06,0.007939738,0.0,0.049987793,0.006408691,1.013305664,1,-4.300000191,0.0,0.519999981,1,-5.380000114,0.0,-7.289999962,19,3.140000105,0.0,-0.239999995,0,2.079999924,0.0,0.200000003,0,0.680000007,0.0,-6.550000191,16,-3.569999933,0.0,-0.319999993,0.252125204,0.263971299,0.0094629,-0.042205691,-1.706937751,0.0,0.0,1.0,0.0,0.0,0.0,1742551466.0,0
1742551466,515716922,0.012782474,0.017431056,0.753323197,-0.657295167,-0.012566702,0.003746051,0.0,0.042663574,0.012268066,1.016784668,1,-4.300000191,0.0,0.540000021,1,-5.380000114,0.0,-7.260000229,19,3.140000105,0.0,-0.310000002,0,2.079999924,0.0,0.189999998,0,0.680000007,0.0,-6.559999943,16,-3.569999933,0.0,-0.389999986,0.252125204,0.263971299,0.009467285,-0.042185878,-1.706936589,0.0,0.0,1.0,0.0,0.0,0.0,1742551467.0,0
1742551466,575590483,0.012700608,0.017373605,0.753324866,-0.657296479,0.018856023,0.006897648,0.0,0.037719727,0.012817383,0.998474121,1,-4.300000191,0.0,0.529999971,1,-5.380000114,0.0,-7.25,19,3.140000105,0.0,-0.349999994,0,2.079999924,0.0,0.189999998,0,0.680000007,0.0,-6.579999924,16,-3.569999933,0.0,-0.460000008,0.252125204,0.263971299,0.009488312,-0.041986921,-1.706936458,0.0,0.0,1.0,0.0,0.0,0.0,1742551467.0,0
1742551466,615731696,0.012730557,0.017394708,0.753324211,-0.657296062,0.007337558,-0.013002083,0.0,0.042114258,0.011352539,1.021179199,1,-4.300000191,0.0,0.529999971,1,-5.380000114,0.0,-7.25,19,3.140000105,0.0,-0.300000012,0,2.079999924,0.0,0.189999998,0,0.680000007,0.0,-6.570000172,16,-3.569999933,0.0,-0.409999996,0.252125204,0.263971299,0.009480747,-0.042059819,-1.706936371,0.0,0.0,1.0,0.0,0.0,0.0,1742551467.0,0
1742551466,675794977,0.012744692,0.01738712,0.753324091,-0.657296062,-0.002087696,-0.003576441,0.0,0.039550781,0.00769043,1.00378418,1,-4.300000191,0.0,0.540000021,1,-5.380000114,0.0,-7.230000019,19,3.140000105,0.0,-0.289999992,0,2.079999924,0.0,0.200000003,0,0.680000007,0.0,-6.590000153,16,-3.569999933,0.0,-0.389999986,0.252125204,0.263971299,0.009450704,-0.042071148,-1.706935553,0.0,0.0,1.0,0.0,0.0,0.0,1742551467.0,0
1742551466,715836204,0.012704285,0.017424488,0.753322423,-0.65729779,0.008391889,-0.006713591,0.0,0.042663574,0.011169434,1.017333984,1,-4.300000191,0.0,0.529999971,1,-5.380000114,0.0,-7.190000057,19,3.140000105,0.0,-0.319999993,0,2.079999924,0.0,0.209999993,0,0.680000007,0.0,-6.610000134,16,-3.569999933,0.0,-0.409999996,0.252125204,0.263971299,0.009560119,-0.0420594,-1.706933028,0.0,0.0,1.0,0.0,0.0,0.0,1742551467.0,0
1742551466,778087405,0.012691264,0.017377764,0.753322661,-0.657299042,0.001055732,-0.003563818,0.0,0.045593262,0.012084961,1.010925293,1,-4.300000191,0.0,0.519999981,1,-5.380000114,0.0,-7.199999809,19,3.140000105,0.0,-0.25999999,0,2.079999924,0.0,0.180000007,0,0.680000007,0.0,-6.599999905,16,-3.569999933,0.0,-0.340000004,0.252125204,0.263971299,0.009506734,-0.041978337,-1.706929994,0.0,0.0,1.0,0.0,0.0,0.0,1742551467.0,0
1742551466,815804035,0.012759388,0.017416006,0.753322005,-0.657297492,-0.007314729,-0.003571558,0.0,0.03717041,-0.002197266,1.024108887,1,-4.300000191,0.0,0.540000021,1,-5.380000114,0.0,-7.210000038,19,3.140000105,0.0,-0.300000012,0,2.079999924,0.0,0.200000003,0,0.680000007,0.0,-6.590000153,16,-3.569999933,-0.01,-0.400000006,0.252125204,0.263971299,0.009474843,-0.042131313,-1.706931562,0.0,0.0,1.0,0.0,0.0,0.0,1742551467.0,0
1742551466,875497997,0.012748581,0.017421858,0.753321469,-0.657298028,0.004197641,-0.024511304,0.0,0.043579102,0.004211426,1.015869141,1,-4.300000191,0.0,0.540000021,1,-5.380000114,0.0,-7.170000076,19,3.140000105,0.0,-0.319999993,0,2.079999924,0.0,0.180000007,0,0.680000007,0.0,-6.650000095,16,-3.569999933,0.0,-0.409999996,0.252125204,0.263971299,0.009497853,-0.042122722,-1.706930319,0.0,0.0,1.0,0.0,0.0,0.0,1742551467.0,0
1742551466,915803378,0.012781902,0.017462991,0.753320634,-0.657297313,1.18e-05,0.019470356,0.0,0.033691406,-0.00604248,1.01751709,1,-4.300000191,0.0,0.519999981,1,-5.380000114,0.0,-7.170000076,19,3.140000105,-0.01,-0.239999995,0,2.079999924,0.0,0.189999998,0,0.680000007,0.0,-6.639999866,16,-3.569999933,-0.01,-0.340000004,0.252125204,0.263971299,0.00951607,-0.042227044,-1.706931267,0.0,0.0,1.0,0.0,0.0,0.0,1742551467.0,0
1742551466,975619269,0.012853034,0.017491989,0.753319979,-0.657295942,0.01257809,-0.019283585,0.0,0.036804199,0.001831055,1.012939453,1,-4.300000191,0.0,0.569999993,1,-5.380000114,0.0,-7.199999809,19,3.140000105,0.0,-0.360000014,0,2.079999924,0.0,0.200000003,0,0.680000007,0.0,-6.630000114,16,-3.569999933,0.0,-0.460000008,0.252125204,0.263971299,0.009466273,-0.042372399,-1.706932155,0.0,0.0,1.0,0.0,0.0,0.0,1742551467.0,0
1742551467,15676873,0.012768971,0.017421739,0.753321826,-0.657297194,-0.01464336,0.022619016,0.0,0.036071777,0.011901855,1.009643555,1,-4.300000191,0.0,0.50999999,1,-5.380000114,0.0,-7.150000095,19,3.140000105,0.0,-0.289999992,0,2.079999924,0.0,0.159999996,0,0.680000007,0.0,-6.650000095,16,-3.569999933,0.0,-0.379999995,0.252125204,0.263971299,0.00947089,-0.042153292,-1.706931582,0.0,0.0,1.0,0.0,0.0,0.0,1742551467.0,0
1742551467,76643610,0.01285281,0.017513888,0.753320098,-0.657295227,0.022011284,0.003765292,0.0,0.035339355,0.006225586,1.00982666,1,-4.300000191,0.0,0.50999999,1,-5.380000114,0.0,-7.130000114,19,3.140000105,-0.01,-0.239999995,0,2.079999924,0.0,0.170000002,0,0.680000007,0.0,-6.650000095,16,-3.569999933,-0.01,-0.310000002,0.252125204,0.263971299,0.009499627,-0.042400854,-1.706934232,0.0,0.0,1.0,0.0,0.0,0.0,1742551467.0,0
1742551467,115836539,0.012903925,0.017532516,0.753319442,-0.657294452,-0.008362142,-0.009853894,0.0,0.049621582,0.019042969,1.010925293,1,-4.300000191,0.0,0.550000012,1,-5.380000114,0.0,-7.150000095,19,3.140000105,0.0,-0.379999995,0,2.079999924,0.0,0.189999998,0,0.680000007,0.0,-6.71999979,16,-3.569999933,0.01,-0.449999988,0.252125204,0.263971299,0.009460499,-0.042502402,-1.706934152,0.0,0.0,1.0,0.0,0.0,0.0,1742551467.0,0
1742551467,156514412,0.012957761,0.017568866,0.753319204,-0.657292664,0.008398731,-0.004607338,0.0,0.032043457,0.009521484,1.001220703,1,-4.300000191,0.0,0.529999971,1,-5.380000114,0.0,-7.130000114,19,3.140000105,-0.02,-0.349999994,0,2.079999924,0.0,0.180000007,0,0.680000007,0.0,-6.670000076,16,-3.569999933,-0.01,-0.409999996,0.252125204,0.263971299,0.009444567,-0.042631346,-1.706936763,0.0,0.0,1.0,0.0,0.0,0.0,1742551467.0,0
1742551467,216490701,0.013018765,0.017569246,0.753318787,-0.65729183,0.015723649,-0.022408092,0.0,0.047241211,0.011169434,1.007080078,1,-4.300000191,0.0,0.569999993,1,-5.380000114,0.0,-7.190000057,19,3.140000105,-0.01,-0.430000007,0,2.079999924,0.0,0.209999993,0,0.680000007,0.0,-6.679999828,16,-3.569999933,0.0,-0.50999999,0.252125204,0.263971299,0.009364912,-0.042723801,-1.70693608,0.0,0.0,1.0,0.0,0.0,0.0,1742551467.0,0
1742551467,281284375,0.013028547,0.017552609,0.753318906,-0.657292008,0.02095199,0.002738145,0.0,0.043945313,0.014282227,1.015136719,1,-4.300000191,0.0,0.550000012,1,-5.380000114,0.0,-7.179999828,19,3.140000105,0.0,-0.449999988,0,2.079999924,0.0,0.189999998,0,0.680000007,0.0,-6.710000038,16,-3.569999933,0.0,-0.550000012,0.252125204,0.263971299,0.009326947,-0.04271667,-1.706935207,0.0,0.0,1.0,0.0,0.0,0.0,1742551467.0,0
1742551467,318144174,0.013121994,0.017673036,0.753316998,-0.657289147,0.012582774,-0.007728704,0.0,0.043212891,0.010803223,1.003601074,1,-4.300000191,0.0,0.540000021,1,-5.380000114,0.0,-7.150000095,19,3.140000105,-0.01,-0.379999995,0,2.079999924,0.0,0.200000003,0,0.680000007,0.0,-6.699999809,16,-3.569999933,-0.01,-0.449999988,0.252125204,0.263971299,0.009385728,-0.043015897,-1.706939723,0.0,0.0,1.0,0.0,0.0,0.0,1742551467.0,0
1742551467,376222096,0.013212588,0.017731125,0.753315389,-0.657287717,-0.020935681,-0.006676493,0.0,0.04083252,0.013549805,1.028503418,1,-4.300000191,0.0,0.540000021,1,-5.380000114,0.0,-7.159999847,19,3.140000105,0.0,-0.49000001,0,2.079999924,0.0,0.200000003,0,0.680000007,0.0,-6.71999979,16,-3.569999933,0.0,-0.550000012,0.252125204,0.263971299,0.00935419,-0.043228855,-1.706940216,0.0,0.0,1.0,0.0,0.0,0.0,1742551467.0,0
1742551467,415809915,0.013227056,0.017763548,0.753315032,-0.657286823,0.004201444,0.005903936,0.0,0.040466309,-0.000915527,1.017700195,1,-4.300000191,0.0,0.519999981,1,-5.380000114,0.0,-7.139999866,19,3.140000105,-0.01,-0.400000006,0,2.079999924,0.0,0.189999998,0,0.680000007,0.0,-6.739999771,16,-3.569999933,-0.01,-0.460000008,0.252125204,0.263971299,0.009384086,-0.043293294,-1.706941863,0.0,0.0,1.0,0.0,0.0,0.0,1742551467.0,0
1742551467,475667931,0.013361683,0.01793531,0.753311753,-0.657283127,0.017822402,-0.005622025,0.0,0.045959473,0.011169434,1.01550293,1,-4.300000191,0.0,0.569999993,1,-5.380000114,0.0,-7.170000076,19,3.140000105,-0.02,-0.519999981,0,2.079999924,0.0,0.219999999,0,0.680000007,0.0,-6.769999981,16,-3.569999933,-0.01,-0.550000012,0.252125204,0.263971299,0.009466129,-0.043722107,-1.706946844,0.0,0.0,1.0,0.0,0.0,0.0,1742551467.0,0
1742551467,515469472,0.01327762,0.017950321,0.753312051,-0.65728426,0.001075707,-0.011889409,0.0,0.04888916,0.009338379,1.002502441,1,-4.300000191,0.0,0.50999999,1,-5.380000114,0.0,-7.130000114,19,3.140000105,-0.01,-0.49000001,0,2.079999924,0.0,0.189999998,0,0.680000007,0.0,-6.78000021,16,-3.569999933,-0.02,-0.519999981,0.252125204,0.263971299,0.00959932,-0.043615136,-1.706948162,0.0,0.0,1.0,0.0,0.0,0.0,1742551468.0,0
1742551467,575643207,0.013440366,0.018103108,0.753308237,-0.657280982,-0.003119015,-0.01503574,0.0,0.031860352,0.001098633,1.00579834,1,-4.300000191,0.0,0.550000012,1,-5.380000114,0.0,-7.139999866,19,3.130000114,-0.029999999,-0.529999971,0,2.079999924,0.0,0.209999993,0,0.680000007,0.0,-6.789999962,16,-3.569999933,-0.02,-0.589999974,0.252125204,0.263971299,0.009615727,-0.044061389,-1.706950393,0.0,0.0,1.0,0.0,0.0,0.0,1742551468.0,0
1742551467,615638313,0.013435603,0.018155208,0.753307223,-0.657280922,0.001071483,-0.015031151,0.0,0.040466309,0.003662109,1.017333984,1,-4.300000191,0.0,0.529999971,1,-5.380000114,0.0,-7.159999847,19,3.130000114,-0.029999999,-0.569999993,0,2.079999924,0.0,0.200000003,0,0.680000007,0.0,-6.829999924,16,-3.569999933,-0.02,-0.610000014,0.252125204,0.263971299,0.00970056,-0.044122732,-1.706951472,0.0,0.0,1.0,0.0,0.0,0.0,1742551468.0,0
1742551467,675808154,0.013536558,0.018251302,0.75330478,-0.657279015,0.019912887,0.003823152,0.0,0.045776367,0.013549805,1.011108398,1,-4.300000191,0.0,0.540000021,1,-5.380000114,0.0,-7.099999905,19,3.130000114,-0.050000001,-0.560000002,0,2.079999924,0.0,0.209999993,0,0.680000007,0.0,-6.860000134,16,-3.579999924,-0.029999999,-0.589999974,0.252125204,0.263971299,0.009712719,-0.044401292,-1.706952786,0.0,0.0,1.0,0.0,0.0,0.0,1742551468.0,0
1742551467,715598899,0.013553917,0.018221961,0.753305674,-0.657278419,0.009443361,-0.008733585,0.0,0.049255371,0.007141113,1.020996094,1,-4.300000191,0.0,0.550000012,1,-5.380000114,0.0,-7.130000114,19,3.130000114,-0.050000001,-0.629999995,0,2.079999924,0.0,0.230000004,0,0.680000007,0.0,-6.860000134,16,-3.579999924,-0.029999999,-0.680000007,0.252125204,0.263971299,0.00964567,-0.044388865,-1.706953276,0.0,0.0,1.0,0.0,0.0,0.0,1742551468.0,0
1742551467,775669844,0.013483633,0.0182427,0.753304601,-0.657280385,0.011533541,0.0059232,0.0,0.044494629,0.003845215,1.009094238,1,-4.300000191,0.0,0.529999971,1,-5.380000114,0.0,-7.039999962,19,3.119999886,-0.079999998,-0.50999999,0,2.079999924,0.0,0.189999998,0,0.680000007,0.0,-6.840000153,16,-3.579999924,-0.050000001,-0.569999993,0.252125204,0.263971299,0.009769309,-0.044310202,-1.706951087,0.0,0.0,1.0,0.0,0.0,0.0,1742551468.0,0
1742551467,817217397,0.013396158,0.018102711,0.753307581,-0.65728265,-0.006270707,0.001738681,0.0,0.047790527,0.000366211,1.010009766,1,-4.300000191,0.0,0.529999971,1,-5.380000114,0.0,-7.050000191,19,3.119999886,-0.100000001,-0.479999989,0,2.079999924,0.0,0.200000003,0,0.680000007,0.0,-6.860000134,16,-3.579999924,-0.059999999,-0.550000012,0.252125204,0.263971299,0.009673205,-0.043994241,-1.706947962,0.0,0.0,1.0,0.0,0.0,0.0,1742551468.0,0
1742551467,875641205,0.012911506,0.017704241,0.753316045,-0.657293558,1.85e-05,0.028967839,0.0,0.040100098,0.011901855,1.013122559,1,-4.300000191,0.0,0.50999999,1,-5.380000114,0.0,-6.949999809,19,3.099999905,-0.189999998,-0.25,0,2.079999924,0.0,0.150000006,0,0.680000007,0.0,-6.78000021,16,-3.589999914,-0.090000004,-0.370000005,0.252125204,0.263971299,0.009709497,-0.042739667,-1.706937429,0.0,0.0,1.0,0.0,0.0,0.0,1742551468.0,0
1742551467,915688101,0.012369776,0.01737128,0.753321648,-0.657306373,-0.002055848,0.033152509,0.0,0.049072266,0.019775391,1.024475098,1,-4.300000191,0.0,0.479999989,1,-5.380000114,0.0,-6.849999905,19,3.089999914,-0.209999993,-0.209999993,0,2.079999924,0.0,0.150000006,0,0.680000007,0.0,-6.809999943,16,-3.599999905,-0.100000001,-0.289999992,0.252125204,0.263971299,0.009919555,-0.041485245,-1.706923661,0.0,0.0,1.0,0.0,0.0,0.0,1742551468.0,0
1742551467,975560163,0.011807249,0.016977072,0.753249645,-0.657409608,4.77e-05,0.029992159,0.003975429,0.047607422,0.003845215,1.013305664,1,-4.300000191,0.02,0.349999994,1,-5.380000114,0.0,-6.960000038,19,3.079999924,-0.150000006,-0.360000014,0,2.079999924,-0.02,0.280000001,0,0.680000007,0.0,-6.739999771,16,-3.599999905,-0.129999995,-0.200000003,0.252125204,0.263971299,0.010059814,-0.040120155,-1.706669504,0.0,0.0,1.0,0.0,0.0,0.0,1742551468.0,0
1742551468,15814961,0.011629164,0.016708475,0.753242552,-0.657427847,0.016757095,0.006936916,0.0,0.047241211,0.002197266,1.006530762,1,-4.300000191,0.02,0.300000012,1,-5.380000114,0.0,-7.010000229,19,3.079999924,-0.100000001,-0.330000013,0,2.079999924,-0.02,0.330000013,0,0.680000007,0.0,-6.679999828,16,-3.609999895,-0.119999997,-0.090000004,0.252125204,0.263971299,0.009888269,-0.039498665,-1.706626243,0.0,0.0,1.0,0.0,0.0,0.0,1742551468.0,0
1742551468,75953027,0.011561476,0.016466202,0.753243923,-0.65743351,0.015660871,-0.002510935,0.0,0.03515625,-0.000732422,1.018615723,1,-4.300000191,0.0,0.370000005,1,-5.380000114,0.0,-7.03000021,19,3.079999924,-0.039999999,-0.349999994,0,2.079999924,0.0,0.310000002,0,0.680000007,0.0,-6.699999809,16,-3.609999895,-0.059999999,-0.230000004,0.252125204,0.263971299,0.009611816,-0.039078034,-1.706611934,0.0,0.0,1.0,0.0,0.0,0.0,1742551468.0,0
1742551468,115629168,0.011629865,0.016486209,0.753244936,-0.657430708,-0.003200332,-0.015092903,0.0,0.038635254,0.008056641,0.992614746,1,-4.300000191,0.0,0.389999986,1,-5.380000114,0.0,-6.949999809,19,3.079999924,0.0,-0.310000002,0,2.079999924,0.0,0.300000012,0,0.680000007,0.0,-6.75,16,-3.609999895,-0.039999999,-0.219999999,0.252125204,0.263971299,0.009552133,-0.039207397,-1.706617028,0.0,0.0,1.0,0.0,0.0,0.0,1742551468.0,0
1742551468,175541357,0.01165849,0.016407982,0.753247082,-0.657429695,-0.010534403,-0.004635226,0.0,0.042297363,0.00769043,1.007446289,1,-4.300000191,0.0,0.400000006,1,-5.380000114,0.0,-6.920000076,19,3.079999924,0.029999999,-0.25,0,2.079999924,0.0,0.25,0,0.680000007,0.0,-6.710000038,16,-3.609999895,-0.01,-0.230000004,0.252125204,0.263971299,0.009396591,-0.039147634,-1.706618041,0.0,0.0,1.0,0.0,0.0,0.0,1742551468.0,0
1742551468,217859166,0.011644071,0.016406782,0.753247499,-0.657429516,0.015657701,-0.015119017,0.0,0.043945313,0.014282227,1.012207031,1,-4.300000191,0.0,0.409999996,1,-5.380000114,0.0,-6.880000114,19,3.089999914,0.029999999,-0.129999995,0,2.079999924,0.0,0.25,0,0.680000007,0.0,-6.730000019,16,-3.609999895,0.0,-0.170000002,0.252125204,0.263971299,0.009413766,-0.039124321,-1.706619104,0.0,0.0,1.0,0.0,0.0,0.0,1742551468.0,0
1742551468,275512465,0.011486409,0.016377734,0.753248513,-0.657431781,0.00415662,0.010004998,0.0,0.035522461,0.008972168,1.007995605,1,-4.300000191,0.0,0.389999986,1,-5.380000114,0.0,-6.78000021,19,3.089999914,0.02,-0.079999998,0,2.079999924,0.0,0.25999999,0,0.680000007,0.0,-6.730000019,16,-3.609999895,0.01,-0.109999999,0.252125204,0.263971299,0.009577319,-0.038848498,-1.706618808,0.0,0.0,1.0,0.0,0.0,0.0,1742551468.0,0
1742551468,315575335,0.011326933,0.016349671,0.753248811,-0.65743494,0.023014637,0.013138197,0.0,0.045227051,0.002197266,1.018615723,1,-4.300000191,0.0,0.370000005,1,-5.380000114,0.0,-6.769999981,19,3.089999914,0.01,-0.039999999,0,2.079999924,0.0,0.280000001,0,0.680000007,0.0,-6.710000038,16,-3.609999895,0.01,-0.059999999,0.252125204,0.263971299,0.0097447,-0.038571252,-1.706616385,0.0,0.0,1.0,0.0,0.0,0.0,1742551468.0,0
1742551468,375895091,0.011037726,0.016127236,0.753251731,-0.657442033,-0.00945697,0.020453207,0.0,0.042297363,0.002563477,1.00579834,1,-4.300000191,0.0,0.340000004,1,-5.380000114,0.0,-6.730000019,19,3.089999914,0.0,0.0,0,2.079999924,0.0,0.289999992,0,0.680000007,0.0,-6.679999828,16,-3.609999895,0.02,0.039999999,0.252125204,0.263971299,0.009789572,-0.03784285,-1.70660687,0.0,0.0,1.0,0.0,0.0,0.0,1742551468.0,0
1742551468,416482074,0.010919571,0.01598148,0.753253281,-0.657445729,0.002047233,0.014160235,0.0,0.037719727,0.018493652,1.014038086,1,-4.300000191,0.0,0.340000004,1,-5.380000114,0.0,-6.690000057,19,3.089999914,0.02,-0.02,0,2.079999924,0.0,0.310000002,0,0.680000007,0.0,-6.670000076,16,-3.609999895,0.029999999,0.02,0.252125204,0.263971299,0.009725135,-0.037473087,-1.706600241,0.0,0.0,1.0,0.0,0.0,0.0,1742551468.0,0
1742551468,475588384,0.010652013,0.015698735,0.753257096,-0.657452583,-0.004237705,0.015184682,0.0,0.049255371,0.013916016,1.008178711,1,-4.300000191,0.0,0.319999993,1,-5.380000114,0.0,-6.699999809,19,3.089999914,0.029999999,0.140000001,0,2.079999924,0.0,0.280000001,0,0.680000007,0.0,-6.650000095,16,-3.609999895,0.039999999,0.189999998,0.252125204,0.263971299,0.009650627,-0.036697993,-1.706589821,0.0,0.0,1.0,0.0,0.0,0.0,1742551468.0,0
1742551468,515901899,0.010532126,0.015520826,0.753259242,-0.657456338,0.002036456,0.012026984,0.0,0.04486084,0.004577637,1.016418457,1,-4.300000191,0.0,0.340000004,1,-5.380000114,0.0,-6.670000076,19,3.089999914,0.029999999,0.209999993,0,2.079999924,0.0,0.270000011,0,0.680000007,0.0,-6.610000134,16,-3.599999905,0.039999999,0.209999993,0.252125204,0.263971299,0.009540009,-0.036283334,-1.706583052,0.0,0.0,1.0,0.0,0.0,0.0,1742551469.0,0
1742551468,575542300,0.010265648,0.015235499,0.753262997,-0.657462776,-0.002162024,0.00782817,0.0,0.034790039,0.000915527,1.00982666,1,-4.300000191,0.0,0.340000004,1,-5.380000114,0.0,-6.570000172,19,3.099999905,0.059999999,0.289999992,0,2.079999924,0.0,0.25,0,0.680000007,0.0,-6.619999886,16,-3.599999905,0.07,0.25,0.252125204,0.263971299,0.009460216,-0.035506474,-1.706572972,0.0,0.0,1.0,0.0,0.0,0.0,1742551469.0,0
1742551468,615574448,0.010185437,0.015107905,0.753264964,-0.657464802,-0.010543128,-0.016258918,0.0,0.031494141,0.012268066,1.012939453,1,-4.300000191,0.0,0.370000005,1,-5.380000114,0.0,-6.610000134,19,3.099999905,0.07,0.25,0,2.079999924,0.01,0.239999995,0,0.680000007,0.0,-6.630000114,16,-3.589999914,0.119999997,0.159999996,0.252125204,0.263971299,0.009373327,-0.035217777,-1.706569724,0.0,0.0,1.0,0.0,0.0,0.0,1742551469.0,0
1742551468,675440114,0.010268716,0.015231795,0.753263593,-0.657462239,-0.017856101,-0.015214158,0.0,0.036804199,0.012451172,1.010742188,1,-4.300000191,0.0,0.430000007,1,-5.380000114,0.0,-6.579999924,19,3.109999895,0.109999999,0.230000004,0,2.079999924,0.01,0.200000003,0,0.680000007,0.0,-6.78000021,16,-3.579999924,0.219999999,0.02,0.252125204,0.263971299,0.009450624,-0.03550622,-1.706574534,0.0,0.0,1.0,0.0,0.0,0.0,1742551469.0,0
1742551468,715417870,0.010542587,0.015600915,0.753256798,-0.657456934,-0.006308543,-0.043483816,0.0,0.047790527,0.01940918,0.997192383,1,-4.300000191,0.0,0.49000001,1,-5.380000114,0.0,-6.579999924,19,3.119999886,0.150000006,0.039999999,0,2.079999924,0.01,0.230000004,0,0.680000007,0.0,-6.840000153,16,-3.559999943,0.300000012,-0.140000001,0.252125204,0.263971299,0.009646938,-0.036404451,-1.70658128,0.0,0.0,1.0,0.0,0.0,0.0,1742551469.0,0
1742551468,775430473,0.0109448,0.016062284,0.753126383,-0.65758872,0.00310873,-0.005773189,0.0,0.036254883,0.009521484,1.015686035,1,-4.300000191,0.029999999,0.200000003,1,-5.380000114,0.0,-6.650000095,19,3.130000114,0.239999995,0.0,0,2.079999924,-0.029999999,0.449999988,0,0.680000007,0.0,-6.619999886,16,-3.559999943,0.180000007,0.239999995,0.252125204,0.263971299,0.0098066,-0.037619262,-1.706220088,0.0,0.0,1.0,0.0,0.0,0.0,1742551469.0,0
1742551468,815461446,0.011435084,0.016169231,0.753117085,-0.657588422,-0.022103196,-0.030922975,0.0,0.045959473,-0.001464844,1.016052246,1,-4.300000191,0.02,0.330000013,1,-5.380000114,0.0,-6.739999771,19,3.140000105,0.230000004,-0.050000001,0,2.079999924,0.0,0.439999998,0,0.680000007,0.0,-6.610000134,16,-3.549999952,0.219999999,0.059999999,0.252125204,0.263971299,0.009322534,-0.038498823,-1.70620332,0.0,0.0,1.0,0.0,0.0,0.0,1742551469.0,0
1742551468,875416293,0.011540994,0.016288934,0.753123403,-0.657576323,-0.02835454,-0.006803575,0.0,0.030944824,0.014282227,1.025024414,1,-4.300000191,-0.01,0.430000007,1,-5.380000114,0.0,-6.46999979,19,3.140000105,0.119999997,0.239999995,0,2.079999924,0.02,0.209999993,0,0.680000007,0.0,-6.760000229,16,-3.529999971,0.239999995,0.050000001,0.252125204,0.263971299,0.009364177,-0.038815767,-1.706232074,0.0,0.0,1.0,0.0,0.0,0.0,1742551469.0,0
1742551468,915501083,0.011665657,0.016504314,0.753121197,-0.657571256,0.020893335,-0.01517857,0.0,0.034606934,0.017578125,1.00378418,1,-4.300000191,-0.01,0.479999989,1,-5.380000114,0.0,-6.539999962,19,3.150000095,0.119999997,0.159999996,0,2.079999924,0.01,0.25,0,0.680000007,0.0,-6.849999905,16,-3.519999981,0.230000004,-0.02,0.252125204,0.263971299,0.009524989,-0.039286938,-1.706242145,0.0,0.0,1.0,0.0,0.0,0.0,1742551469.0,0
1742551468,975473598,0.011488996,0.016542116,0.753073394,-0.657628179,-0.018865837,0.014181868,0.014450915,0.032226563,0.014099121,1.008728027,1,-4.300000191,0.0,0.360000014,1,-5.380000114,0.0,-6.449999809,19,3.150000095,0.039999999,0.360000014,0,2.079999924,0.0,0.25,0,0.680000007,0.0,-6.75,16,-3.50999999,0.170000002,0.209999993,0.252125204,0.263971299,0.009811526,-0.039071177,-1.70609807,0.0,0.0,1.0,0.0,0.0,0.0,1742551469.0,0
1742551469,22189817,0.011311841,0.016455781,0.752993762,-0.657724679,0.011508405,0.015230941,0.005025905,0.033874512,0.00769043,1.021728516,1,-4.300000191,0.0,0.330000013,1,-5.380000114,0.0,-6.5,19,3.150000095,0.029999999,0.170000002,0,2.079999924,0.0,0.349999994,0,0.680000007,0.0,-6.71999979,16,-3.50999999,0.150000006,0.140000001,0.252125204,0.263971299,0.009909625,-0.038691891,-1.705848039,0.0,0.0,1.0,0.0,0.0,0.0,1742551469.0,0
1742551469,75757162,0.010984519,0.016079066,0.752969384,-0.657767415,-0.007387012,0.014192482,0.0,0.043029785,-0.005126953,1.016601563,1,-4.300000191,0.0,0.270000011,1,-5.380000114,0.0,-6.5,19,3.150000095,0.0,0.310000002,0,2.079999924,-0.01,0.310000002,0,0.680000007,0.0,-6.659999847,16,-3.5,0.079999998,0.330000013,0.252125204,0.263971299,0.009770672,-0.037703516,-1.705744006,0.0,0.0,1.0,0.0,0.0,0.0,1742551469.0,0
1742551469,115822578,0.010744057,0.015826151,0.752972603,-0.657773793,-0.018922828,0.02361298,0.0,0.04486084,-0.000915527,1.014587402,1,-4.300000191,0.0,0.319999993,1,-5.380000114,0.0,-6.460000038,19,3.150000095,0.0,0.239999995,0,2.079999924,0.0,0.310000002,0,0.680000007,0.0,-6.71999979,16,-3.5,0.07,0.239999995,0.252125204,0.263971299,0.009705796,-0.037008462,-1.70573398,0.0,0.0,1.0,0.0,0.0,0.0,1742551469.0,0
1742551469,175543967,0.010351547,0.015432478,0.752977848,-0.657783568,-0.004279087,0.018375397,0.0,0.03717041,-0.000732422,1.006713867,1,-4.300000191,0.0,0.289999992,1,-5.380000114,0.0,-6.409999847,19,3.150000095,0.02,0.360000014,0,2.079999924,0.0,0.289999992,0,0.680000007,0.0,-6.690000057,16,-3.5,0.039999999,0.379999995,0.252125204,0.263971299,0.009628826,-0.035899142,-1.705719561,0.0,0.0,1.0,0.0,0.0,0.0,1742551469.0,0
1742551469,215539397,0.010183804,0.015230013,0.752980411,-0.657787859,0.00618327,0.011042129,0.0,0.03918457,0.002929688,1.01385498,1,-4.300000191,0.0,0.310000002,1,-5.380000114,0.0,-6.429999828,19,3.150000095,0.029999999,0.460000008,0,2.079999924,0.0,0.280000001,0,0.680000007,0.0,-6.690000057,16,-3.5,0.029999999,0.379999995,0.252125204,0.263971299,0.009544356,-0.035380025,-1.705712328,0.0,0.0,1.0,0.0,0.0,0.0,1742551469.0,0
1742551469,276418090,0.009923343,0.015025853,0.752984047,-0.657792449,0.016662665,-0.006754577,0.0,0.039550781,0.012634277,1.014038086,1,-4.300000191,0.0,0.310000002,1,-5.380000114,0.0,-6.420000076,19,3.160000086,0.079999998,0.340000004,0,2.079999924,0.0,0.300000012,0,0.680000007,0.0,-6.699999809,16,-3.49000001,0.029999999,0.310000002,0.252125204,0.263971299,0.009579375,-0.034718998,-1.70570775,0.0,0.0,1.0,0.0,0.0,0.0,1742551469.0,0
1742551469,315619678,0.009906574,0.014924183,0.75298506,-0.65779382,-0.004292857,0.009997912,0.0,0.032226563,0.007324219,1.01184082,1,-4.300000191,0.0,0.289999992,1,-5.380000114,0.0,-6.409999847,19,3.160000086,0.100000001,0.419999987,0,2.079999924,0.0,0.310000002,0,0.680000007,0.0,-6.710000038,16,-3.49000001,0.039999999,0.379999995,0.252125204,0.263971299,0.00944819,-0.034559955,-1.705703942,0.0,0.0,1.0,0.0,0.0,0.0,1742551469.0,0
1742551469,375651471,0.009945039,0.014983101,0.752984464,-0.657792509,0.014558547,-0.009888079,0.0,0.034790039,0.020141602,1.023742676,1,-4.300000191,0.0,0.300000012,1,-5.380000114,0.0,-6.429999828,19,3.170000076,0.140000001,0.319999993,0,2.079999924,0.0,0.340000004,0,0.680000007,0.0,-6.71999979,16,-3.49000001,0.079999998,0.280000001,0.252125204,0.263971299,0.009486392,-0.034695423,-1.705706339,0.0,0.0,1.0,0.0,0.0,0.0,1742551469.0,0
1742551469,415527323,0.010151566,0.015116607,0.75298214,-0.657788932,0.00513124,-0.009879859,0.0,0.03314209,0.00201416,1.001220703,1,-4.300000191,0.0,0.310000002,1,-5.380000114,0.0,-6.46999979,19,3.180000067,0.150000006,0.200000003,0,2.079999924,0.0,0.360000014,0,0.680000007,0.0,-6.710000038,16,-3.480000019,0.100000001,0.180000007,0.252125204,0.263971299,0.00941586,-0.035182227,-1.7057097,0.0,0.0,1.0,0.0,0.0,0.0,1742551469.0,0
1742551469,475540226,0.010568209,0.015444199,0.752977431,-0.65778029,0.004085459,-0.019291122,0.0,0.035888672,0.016113281,1.010925293,1,-4.300000191,0.0,0.360000014,1,-5.380000114,0.0,-6.460000038,19,3.190000057,0.140000001,0.239999995,0,2.079999924,0.0,0.340000004,0,0.680000007,0.0,-6.78000021,16,-3.470000029,0.150000006,0.119999997,0.252125204,0.263971299,0.009361431,-0.036240957,-1.705720704,0.0,0.0,1.0,0.0,0.0,0.0,1742551469.0,0
1742551469,515822003,0.010723668,0.015621213,0.752976239,-0.657774925,-0.007412231,-0.005651457,0.0,0.031494141,0.005859375,1.007446289,1,-4.300000191,-0.01,0.360000014,1,-5.380000114,0.0,-6.400000095,19,3.190000057,0.090000004,0.310000002,0,2.079999924,0.0,0.319999993,0,0.680000007,0.0,-6.800000191,16,-3.470000029,0.150000006,0.170000002,0.252125204,0.263971299,0.009423773,-0.036708063,-1.705730505,0.0,0.0,1.0,0.0,0.0,0.0,1742551470.0,0
1742551469,575536587,0.010714623,0.015687054,0.752975821,-0.657773912,0.025066059,-0.00143856,0.0,0.033691406,-0.002197266,1.018249512,1,-4.300000191,0.0,0.289999992,1,-5.380000114,0.0,-6.369999886,19,3.200000048,0.050000001,0.400000006,0,2.079999924,0.0,0.360000014,0,0.680000007,0.0,-6.739999771,16,-3.460000038,0.100000001,0.340000004,0.252125204,0.263971299,0.009534939,-0.036781067,-1.705733779,0.0,0.0,1.0,0.0,0.0,0.0,1742551470.0,0
1742551469,616441418,0.01059201,0.01556381,0.752977669,-0.657776773,0.013542906,-0.007714359,0.0,0.031677246,-0.005126953,1.01550293,1,-4.300000191,0.0,0.25999999,1,-5.380000114,0.0,-6.360000134,19,3.200000048,0.01,0.360000014,0,2.079999924,0.0,0.340000004,0,0.680000007,0.0,-6.730000019,16,-3.460000038,0.07,0.360000014,0.252125204,0.263971299,0.009510502,-0.03643418,-1.705729882,0.0,0.0,1.0,0.0,0.0,0.0,1742551470.0,0
1742551469,675897421,0.010382468,0.015301867,0.752978563,-0.657785237,-0.007419182,0.01638104,0.0,0.032226563,-0.005310059,1.008361816,1,-4.300000191,0.0,0.270000011,1,-5.380000114,0.0,-6.389999866,19,3.190000057,0.0,0.25,0,2.079999924,0.0,0.360000014,0,0.680000007,0.0,-6.730000019,16,-3.460000038,0.029999999,0.310000002,0.252125204,0.263971299,0.009391235,-0.035773866,-1.705713035,0.0,0.0,1.0,0.0,0.0,0.0,1742551470.0,0
1742551469,715759898,0.010255773,0.015175853,0.752980351,-0.657788157,-0.004287644,0.013253395,0.0,0.04284668,0.020141602,1.019897461,1,-4.300000191,0.0,0.25,1,-5.380000114,0.0,-6.320000172,19,3.190000057,0.0,0.330000013,0,2.079999924,0.0,0.349999994,0,0.680000007,0.0,-6.760000229,16,-3.460000038,0.0,0.319999993,0.252125204,0.263971299,0.009367998,-0.035417187,-1.70570898,0.0,0.0,1.0,0.0,0.0,0.0,1742551470.0,0
1742551469,775674412,0.010130131,0.015008,0.752982378,-0.657791615,0.010359148,0.008017307,0.0,0.036254883,0.008056641,1.000854492,1,-4.300000191,0.0,0.270000011,1,-5.380000114,0.0,-6.400000095,19,3.200000048,0.0,0.25999999,0,2.079999924,0.0,0.340000004,0,0.680000007,0.0,-6.730000019,16,-3.460000038,0.0,0.25,0.252125204,0.263971299,0.009280308,-0.035007042,-1.705702955,0.0,0.0,1.0,0.0,0.0,0.0,1742551470.0,0
1742551469,816332566,0.010010472,0.014924245,0.752983749,-0.657793701,0.003030873,0.001741802,0.0,0.035705566,0.01574707,1.007446289,1,-4.300000191,0.0,0.280000001,1,-5.380000114,0.0,-6.329999924,19,3.190000057,0.0,0.400000006,0,2.079999924,0.0,0.319999993,0,0.680000007,0.0,-6.769999981,16,-3.460000038,0.0,0.330000013,0.252125204,0.263971299,0.009311522,-0.034716568,-1.705700703,0.0,0.0,1.0,0.0,0.0,0.0,1742551470.0,0
1742551469,875426697,0.009932312,0.014869165,0.752985358,-0.657794297,-0.010567384,-0.003488154,0.0,0.032775879,0.009521484,1.022094727,1,-4.300000191,0.0,0.280000001,1,-5.380000114,0.0,-6.349999905,19,3.200000048,0.0,0.360000014,0,2.079999924,0.0,0.319999993,0,0.680000007,0.0,-6.760000229,16,-3.460000038,0.0,0.310000002,0.252125204,0.263971299,0.009331387,-0.034526334,-1.705701388,0.0,0.0,1.0,0.0,0.0,0.0,1742551470.0,0
1742551469,915492675,0.009855525,0.014807801,0.752986431,-0.657795548,-0.013706177,0.012225173,0.0,0.028564453,0.010253906,1.018066406,1,-4.300000191,0.0,0.25999999,1,-5.380000114,0.0,-6.360000134,19,3.200000048,0.0,0.300000012,0,2.079999924,0.0,0.319999993,0,0.680000007,0.0,-6.769999981,16,-3.460000038,0.0,0.239999995,0.252125204,0.263971299,0.009339945,-0.034329906,-1.705700067,0.0,0.0,1.0,0.0,0.0,0.0,1742551470.0,0
1742551469,975493581,0.009794145,0.014821823,0.752986193,-0.657796443,-0.001135759,0.006995217,0.0,0.040466309,0.016296387,1.019897461,1,-4.300000191,0.0,0.230000004,1,-5.380000114,0.0,-6.300000191,19,3.200000048,0.0,0.379999995,0,2.079999924,0.0,0.340000004,0,0.680000007,0.0,-6.760000229,16,-3.460000038,0.0,0.370000005,0.252125204,0.263971299,0.009441828,-0.034255896,-1.705699832,0.0,0.0,1.0,0.0,0.0,0.0,1742551470.0,0
1742551470,23346257,0.009806551,0.014788708,0.75298655,-0.657796621,-0.013704255,0.015363559,0.0,0.03314209,0.015563965,1.024475098,1,-4.300000191,0.0,0.25999999,1,-5.380000114,0.0,-6.340000153,19,3.200000048,0.0,0.330000013,0,2.079999924,0.0,0.360000014,0,0.680000007,0.0,-6.789999962,16,-3.460000038,0.0,0.319999993,0.252125204,0.263971299,0.009375593,-0.034231011,-1.705698818,0.0,0.0,1.0,0.0,0.0,0.0,1742551470.0,0
1742551470,76160991,0.009723428,0.014708776,0.752987146,-0.657799065,-0.00114278,0.008028273,0.0,0.035888672,0.009521484,1.008178711,1,-4.300000191,0.0,0.25,1,-5.380000114,0.0,-6.28000021,19,3.200000048,0.0,0.330000013,0,2.079999924,0.0,0.340000004,0,0.680000007,0.0,-6.809999943,16,-3.460000038,0.0,0.319999993,0.252125204,0.263971299,0.009364464,-0.034000621,-1.705694782,0.0,0.0,1.0,0.0,0.0,0.0,1742551470.0,0
1742551470,115655830,0.009783796,0.014704915,0.75298655,-0.657798767,-0.005339566,0.000690416,0.0,0.03918457,-0.006225586,0.994995117,1,-4.300000191,0.0,0.25,1,-5.380000114,0.0,-6.309999943,19,3.200000048,0.0,0.370000005,0,2.079999924,0.0,0.360000014,0,0.680000007,0.0,-6.75,16,-3.460000038,0.0,0.319999993,0.252125204,0.263971299,0.009279191,-0.034086484,-1.705693172,0.0,0.0,1.0,0.0,0.0,0.0,1742551470.0,0
1742551470,175536603,0.009727841,0.014639964,0.752987683,-0.6577999,-0.010571082,0.009060703,0.0,0.03314209,0.004394531,1.0078125,1,-4.300000191,0.0,0.270000011,1,-5.380000114,0.0,-6.320000172,19,3.200000048,0.0,0.330000013,0,2.079999924,0.0,0.360000014,0,0.680000007,0.0,-6.789999962,16,-3.460000038,0.0,0.310000002,0.252125204,0.263971299,0.009254934,-0.033916726,-1.705691953,0.0,0.0,1.0,0.0,0.0,0.0,1742551470.0,0
1742551470,215615341,0.009641673,0.01458045,0.752988994,-0.657800913,-0.004282718,0.01535341,0.0,0.031311035,0.007507324,1.015686035,1,-4.300000191,0.0,0.230000004,1,-5.380000114,0.0,-6.28000021,19,3.200000048,0.0,0.430000007,0,2.079999924,0.0,0.330000013,0,0.680000007,0.0,-6.789999962,16,-3.460000038,0.0,0.379999995,0.252125204,0.263971299,0.009278638,-0.033708598,-1.705691489,0.0,0.0,1.0,0.0,0.0,0.0,1742551470.0,0
1742551470,277549969,0.009638656,0.014551747,0.752989769,-0.657800794,-0.015793577,-0.012926757,0.0,0.026733398,0.009338379,1.017700195,1,-4.300000191,0.0,0.230000004,1,-5.380000114,0.0,-6.289999962,19,3.200000048,0.0,0.449999988,0,2.079999924,0.0,0.349999994,0,0.680000007,0.0,-6.769999981,16,-3.460000038,0.0,0.379999995,0.252125204,0.263971299,0.009239369,-0.033666279,-1.705691945,0.0,0.0,1.0,0.0,0.0,0.0,1742551470.0,0
1742551470,315480746,0.009566069,0.014514487,0.752990067,-0.657802165,0.028188499,-0.022351835,0.0,0.036804199,0.013000488,1.020629883,1,-4.300000191,0.0,0.239999995,1,-5.380000114,0.0,-6.289999962,19,3.200000048,0.01,0.409999996,0,2.079999924,0.0,0.349999994,0,0.680000007,0.0,-6.800000191,16,-3.460000038,0.01,0.360000014,0.252125204,0.263971299,0.00927871,-0.033507902,-1.705689977,0.0,0.0,1.0,0.0,0.0,0.0,1742551470.0,0
1742551470,375561022,0.009487173,0.014439856,0.752991378,-0.657803535,-0.028354567,0.003828565,0.0,0.026184082,0.011352539,1.018615723,1,-4.300000191,0.0,0.209999993,1,-5.380000114,0.0,-6.21999979,19,3.200000048,0.0,0.409999996,0,2.079999924,0.0,0.340000004,0,0.680000007,0.0,-6.769999981,16,-3.460000038,0.0,0.370000005,0.252125204,0.263971299,0.009270051,-0.033290844,-1.705688599,0.0,0.0,1.0,0.0,0.0,0.0,1742551470.0,0
1742551470,415443734,0.009516193,0.014457905,0.752990782,-0.657803476,-0.005316662,-0.007701409,0.0,0.041748047,0.010070801,1.012573242,1,-4.300000191,0.0,0.25999999,1,-5.380000114,0.0,-6.289999962,19,3.200000048,0.01,0.319999993,0,2.079999924,0.0,0.370000005,0,0.680000007,0.0,-6.789999962,16,-3.460000038,0.01,0.25999999,0.252125204,0.263971299,0.009259052,-0.033358317,-1.70568813,0.0,0.0,1.0,0.0,0.0,0.0,1742551470.0,0
1742551470,475493737,0.009427665,0.014363409,0.752992034,-0.657805264,-0.006361193,-0.015040334,0.0,0.032226563,-0.00201416,1.023193359,1,-4.300000191,0.0,0.219999999,1,-5.380000114,0.0,-6.269999981,19,3.200000048,0.01,0.419999987,0,2.079999924,0.0,0.340000004,0,0.680000007,0.0,-6.769999981,16,-3.460000038,0.01,0.389999986,0.252125204,0.263971299,0.009233119,-0.033100609,-1.705685299,0.0,0.0,1.0,0.0,0.0,0.0,1742551470.0,0
1742551470,515868341,0.009435541,0.014408851,0.752991438,-0.657804966,0.01039471,-0.004579268,0.0,0.029663086,0.014099121,1.020263672,1,-4.300000191,0.0,0.230000004,1,-5.380000114,0.0,-6.230000019,19,3.200000048,0.0,0.469999999,0,2.079999924,0.0,0.360000014,0,0.680000007,0.0,-6.789999962,16,-3.460000038,0.0,0.430000007,0.252125204,0.263971299,0.009291237,-0.033172274,-1.705686424,0.0,0.0,1.0,0.0,0.0,0.0,1742551471.0,0
1742551470,575483048,0.009309949,0.014250612,0.752992988,-0.657808363,0.011436342,0.009022713,0.0,0.028564453,0.00769043,1.00177002,1,-4.300000191,0.0,0.230000004,1,-5.380000114,0.0,-6.21999979,19,3.200000048,0.01,0.460000008,0,2.079999924,0.0,0.360000014,0,0.680000007,0.0,-6.789999962,16,-3.450000048,0.02,0.409999996,0.252125204,0.263971299,0.009217978,-0.032774864,-1.705680213,0.0,0.0,1.0,0.0,0.0,0.0,1742551471.0,0
1742551470,616031700,0.009243199,0.014197821,0.752993643,-0.657809615,0.007248756,-0.007729474,0.0,0.028747559,-0.00201416,1.003234863,1,-4.300000191,0.0,0.200000003,1,-5.380000114,0.0,-6.210000038,19,3.200000048,0.0,0.579999983,0,2.079999924,0.0,0.340000004,0,0.680000007,0.0,-6.710000038,16,-3.460000038,0.0,0.529999971,0.252125204,0.263971299,0.009226242,-0.032604842,-1.705678436,0.0,0.0,1.0,0.0,0.0,0.0,1742551471.0,0
1742551470,675569504,0.009190237,0.014127685,0.75299412,-0.657811403,0.00724485,0.003783571,0.0,0.024902344,0.003662109,1.028869629,1,-4.300000191,0.0,0.230000004,1,-5.380000114,0.0,-6.210000038,19,3.200000048,0.01,0.519999981,0,2.079999924,0.0,0.370000005,0,0.680000007,0.0,-6.75,16,-3.450000048,0.01,0.460000008,0.252125204,0.263971299,0.009190204,-0.032432779,-1.705675098,0.0,0.0,1.0,0.0,0.0,0.0,1742551471.0,0
1742551470,717247182,0.009046517,0.01401307,0.752995312,-0.657814503,0.020853711,0.012169841,0.0,0.049621582,0.002929688,0.995727539,1,-4.300000191,0.0,0.200000003,1,-5.380000114,0.0,-6.170000076,19,3.200000048,0.02,0.560000002,0,2.079999924,0.0,0.330000013,0,0.680000007,0.0,-6.769999981,16,-3.450000048,0.01,0.49000001,0.252125204,0.263971299,0.009206554,-0.032065466,-1.705670598,0.0,0.0,1.0,0.0,0.0,0.0,1742551471.0,0
1742551470,775581450,0.008980411,0.013963798,0.75299561,-0.657816052,0.009337649,0.000633846,0.0,0.026184082,0.008789063,1.027954102,1,-4.300000191,0.0,0.200000003,1,-5.380000114,0.0,-6.159999847,19,3.200000048,0.01,0.639999986,0,2.079999924,-0.01,0.349999994,0,0.680000007,0.0,-6.739999771,16,-3.450000048,0.0,0.600000024,0.252125204,0.263971299,0.009219261,-0.031901052,-1.70566802,0.0,0.0,1.0,0.0,0.0,0.0,1742551471.0,0
1742551470,815779770,0.008899818,0.013859889,0.752996683,-0.657818139,-0.010562126,-0.010892465,0.0,0.037353516,0.002563477,1.02557373,1,-4.300000191,0.0,0.189999998,1,-5.380000114,0.0,-6.190000057,19,3.210000038,0.029999999,0.589999974,0,2.079999924,0.0,0.349999994,0,0.680000007,0.0,-6.730000019,16,-3.450000048,0.029999999,0.529999971,0.252125204,0.263971299,0.009168695,-0.03164292,-1.705664327,0.0,0.0,1.0,0.0,0.0,0.0,1742551471.0,0
1742551470,875528287,0.008854091,0.013742549,0.752998352,-0.65781939,-0.012655152,0.013186375,0.0,0.028198242,0.008972168,1.003417969,1,-4.300000191,0.0,0.180000007,1,-5.380000114,0.0,-6.159999847,19,3.210000038,0.029999999,0.620000005,0,2.079999924,0.0,0.349999994,0,0.680000007,0.0,-6.679999828,16,-3.450000048,0.01,0.579999983,0.252125204,0.263971299,0.00905204,-0.031419632,-1.705661889,0.0,0.0,1.0,0.0,0.0,0.0,1742551471.0,0
1742551470,915855867,0.008777434,0.01368091,0.752998531,-0.657821536,0.004091529,-0.006713961,0.0,0.040283203,0.010253906,1.011291504,1,-4.300000191,0.0,0.180000007,1,-5.380000114,0.0,-6.199999809,19,3.210000038,0.050000001,0.540000021,0,2.079999924,0.0,0.379999995,0,0.680000007,0.0,-6.710000038,16,-3.450000048,0.039999999,0.550000012,0.252125204,0.263971299,0.009059979,-0.031223057,-1.705658176,0.0,0.0,1.0,0.0,0.0,0.0,1742551471.0,0
1742551470,975568963,0.008811434,0.013712799,0.752998233,-0.657820582,-0.013704534,0.010043552,0.0,0.029846191,0.016662598,1.035095215,1,-4.300000191,0.0,0.150000006,1,-5.380000114,0.0,-6.210000038,19,3.220000029,0.07,0.600000024,0,2.079999924,0.0,0.379999995,0,0.680000007,0.0,-6.679999828,16,-3.450000048,0.029999999,0.610000014,0.252125204,0.263971299,0.00906331,-0.03131623,-1.705659465,0.0,0.0,1.0,0.0,0.0,0.0,1742551471.0,0
1742551471,15435545,0.008881181,0.013735199,0.752997279,-0.657820404,0.014559487,-0.009858701,0.0,0.041015625,0.017944336,1.00378418,1,-4.300000191,0.01,0.170000002,1,-5.380000114,0.0,-6.190000057,19,3.220000029,0.119999997,0.419999987,0,2.079999924,0.0,0.419999987,0,0.680000007,0.0,-6.739999771,16,-3.440000057,0.050000001,0.449999988,0.252125204,0.263971299,0.009005266,-0.031450784,-1.705658352,0.0,0.0,1.0,0.0,0.0,0.0,1742551471.0,0
1742551471,75582332,0.009292901,0.014014339,0.752992153,-0.657814622,0.021867288,-0.022432886,0.0,0.035888672,-0.000549316,1.0078125,1,-4.300000191,0.01,0.129999995,1,-5.380000114,0.0,-6.289999962,19,3.230000019,0.170000002,0.340000004,0,2.079999924,0.0,0.5,0,0.680000007,0.0,-6.710000038,16,-3.440000057,0.039999999,0.449999988,0.252125204,0.263971299,0.008884154,-0.032438325,-1.705662702,0.0,0.0,1.0,0.0,0.0,0.0,1742551471.0,0
1742551471,115585703,0.009621065,0.014189837,0.75299108,-0.657807469,-0.003287558,-0.023480766,0.0,0.038269043,-0.00201416,1.013671875,1,-4.300000191,0.01,0.119999997,1,-5.380000114,0.0,-6.380000114,19,3.24000001,0.219999999,0.310000002,0,2.079999924,0.0,0.519999981,0,0.680000007,0.0,-6.690000057,16,-3.440000057,0.029999999,0.430000007,0.252125204,0.263971299,0.008716927,-0.033163592,-1.705672644,0.0,0.0,1.0,0.0,0.0,0.0,1742551471.0,0
1742551471,177598810,0.009930994,0.014427432,0.753114104,-0.657656729,-0.018999984,0.001657312,-0.005028568,0.031677246,0.019226074,1.014770508,1,-4.300000191,-0.01,0.200000003,1,-5.380000114,0.0,-6.25,19,3.25,0.129999995,0.479999989,0,2.079999924,0.01,0.389999986,0,0.680000007,0.0,-6.71999979,16,-3.440000057,0.01,0.419999987,0.252125204,0.263971299,0.008673739,-0.033941456,-1.706064137,0.0,0.0,1.0,0.0,0.0,0.0,1742551471.0,0
1742551471,215566474,0.009925973,0.014461977,0.753128052,-0.65764004,-0.007457317,-0.006711964,0.0,0.034240723,0.026367188,1.020263672,1,-4.300000191,0.0,0.200000003,1,-5.380000114,0.0,-6.210000038,19,3.25999999,0.119999997,0.449999988,0,2.079999924,0.01,0.389999986,0,0.680000007,0.0,-6.730000019,16,-3.440000057,0.01,0.370000005,0.252125204,0.263971299,0.00873316,-0.033979146,-1.706108763,0.0,0.0,1.0,0.0,0.0,0.0,1742551471.0,0
1742551471,277637122,0.009869629,0.014547581,0.75312835,-0.657638788,0.007234379,-0.002506667,0.0,0.023803711,0.00970459,1.016235352,1,-4.300000191,0.0,0.159999996,1,-5.380000114,0.0,-6.239999771,19,3.25999999,0.059999999,0.479999989,0,2.079999924,0.0,0.419999987,0,0.680000007,0.0,-6.71999979,16,-3.440000057,0.0,0.409999996,0.252125204,0.263971299,0.008936376,-0.034006855,-1.706114787,0.0,0.0,1.0,0.0,0.0,0.0,1742551471.0,0
1742551471,315821025,0.009803343,0.014510985,0.75312978,-0.657638967,0.011440484,-0.016111394,0.0,0.029296875,0.001464844,1.014221191,1,-4.300000191,0.0,0.180000007,1,-5.380000114,0.0,-6.289999962,19,3.25999999,0.029999999,0.479999989,0,2.079999924,0.0,0.430000007,0,0.680000007,0.0,-6.739999771,16,-3.440000057,0.01,0.379999995,0.252125204,0.263971299,0.008968449,-0.033858825,-1.706116303,0.0,0.0,1.0,0.0,0.0,0.0,1742551471.0,0
1742551471,376518600,0.00962582,0.01447352,0.753131151,-0.657640815,0.007268106,0.019503277,0.0,0.034606934,0.019958496,1.022094727,1,-4.300000191,0.0,0.129999995,1,-5.380000114,0.0,-6.260000229,19,3.25999999,0.0,0.400000006,0,2.079999924,0.0,0.439999998,0,0.680000007,0.0,-6.71999979,16,-3.440000057,0.01,0.419999987,0.252125204,0.263971299,0.009145525,-0.033542055,-1.706116832,0.0,0.0,1.0,0.0,0.0,0.0,1742551471.0,0
1742551471,415664062,0.009590582,0.01443137,0.753131211,-0.657642126,-6.94e-05,0.001706817,0.0,0.033691406,0.016845703,1.01953125,1,-4.300000191,0.0,0.140000001,1,-5.380000114,0.0,-6.260000229,19,3.25999999,-0.01,0.389999986,0,2.079999924,0.0,0.430000007,0,0.680000007,0.0,-6.739999771,16,-3.440000057,0.02,0.400000006,0.252125204,0.263971299,0.009128318,-0.033433516,-1.706114071,0.0,0.0,1.0,0.0,0.0,0.0,1742551471.0,0
1742551471,477813473,0.009616209,0.014474076,0.753130376,-0.657641768,0.019826369,-0.009813236,0.0,0.030212402,-0.003479004,1.041503906,1,-4.300000191,0.0,0.140000001,1,-5.380000114,0.0,-6.300000191,19,3.25999999,0.0,0.360000014,0,2.079999924,0.0,0.49000001,0,0.680000007,0.0,-6.75,16,-3.440000057,0.02,0.379999995,0.252125204,0.263971299,0.009158967,-0.033528314,-1.706114458,0.0,0.0,1.0,0.0,0.0,0.0,1742551471.0,0
1742551471,516235492,0.009634823,0.014445242,0.753130376,-0.657642186,0.009347327,-0.008760728,0.0,0.037536621,-0.003479004,1.022277832,1,-4.300000191,0.0,0.100000001,1,-5.380000114,0.0,-6.25,19,3.25999999,0.0,0.50999999,0,2.079999924,0.0,0.439999998,0,0.680000007,0.0,-6.739999771,16,-3.440000057,0.01,0.50999999,0.252125204,0.263971299,0.009091,-0.033518431,-1.706112717,0.0,0.0,1.0,0.0,0.0,0.0,1742551472.0,0
1742551471,575424803,0.009749523,0.014541729,0.753128767,-0.6576401,-0.02102324,-0.000389125,0.0,0.02911377,0.01574707,1.005615234,1,-4.300000191,0.0,0.150000006,1,-5.380000114,0.0,-6.25,19,3.25999999,-0.01,0.370000005,0,2.079999924,0.0,0.460000008,0,0.680000007,0.0,-6.78000021,16,-3.430000067,0.0,0.330000013,0.252125204,0.263971299,0.009085554,-0.033818187,-1.706114868,0.0,0.0,1.0,0.0,0.0,0.0,1742551472.0,0
1742551471,617493418,0.009716269,0.014503014,0.753129303,-0.657640934,0.003062573,-0.004570254,0.0,0.042297363,0.005493164,1.014587402,1,-4.300000191,0.0,0.129999995,1,-5.380000114,0.0,-6.25,19,3.25999999,0.01,0.419999987,0,2.079999924,0.0,0.439999998,0,0.680000007,0.0,-6.789999962,16,-3.430000067,0.0,0.389999986,0.252125204,0.263971299,0.009070938,-0.033717153,-1.706113743,0.0,0.0,1.0,0.0,0.0,0.0,1742551472.0,0
1742551471,675894395,0.009762417,0.014604194,0.753127873,-0.657639623,0.016683806,0.007990572,0.0,0.031494141,0.008422852,1.018798828,1,-4.300000191,0.0,0.119999997,1,-5.380000114,0.0,-6.230000019,19,3.25999999,-0.01,0.49000001,0,2.079999924,0.0,0.449999988,0,0.680000007,0.0,-6.769999981,16,-3.440000057,-0.01,0.449999988,0.252125204,0.263971299,0.009162746,-0.033919794,-1.706116278,0.0,0.0,1.0,0.0,0.0,0.0,1742551472.0,0
1742551471,716488494,0.009784484,0.014619431,0.753127575,-0.657639265,-0.008449484,-0.023422198,0.0,0.030029297,0.010253906,1.016418457,1,-4.300000191,0.0,0.159999996,1,-5.380000114,0.0,-6.25,19,3.25999999,0.0,0.25999999,0,2.079999924,0.0,0.460000008,0,0.680000007,0.0,-6.829999924,16,-3.440000057,0.0,0.219999999,0.252125204,0.263971299,0.009156683,-0.033973089,-1.706116524,0.0,0.0,1.0,0.0,0.0,0.0,1742551472.0,0
1742551471,775520293,0.009769263,0.014642146,0.753127217,-0.657639325,-0.001114264,-0.001421078,0.0,0.034790039,0.01171875,1.029602051,1,-4.300000191,0.0,0.109999999,1,-5.380000114,0.0,-6.239999771,19,3.25999999,0.0,0.370000005,0,2.079999924,0.0,0.449999988,0,0.680000007,0.0,-6.820000172,16,-3.440000057,-0.01,0.319999993,0.252125204,0.263971299,0.009210943,-0.033980037,-1.706116825,0.0,0.0,1.0,0.0,0.0,0.0,1742551472.0,0
1742551471,815392073,0.009878791,0.014723671,0.753125966,-0.657637477,-0.006345948,-0.007710229,0.0,0.025817871,-0.000183105,1.018981934,1,-4.300000191,0.0,0.159999996,1,-5.380000114,0.0,-6.28000021,19,3.25999999,0.0,0.310000002,0,2.079999924,0.0,0.469999999,0,0.680000007,0.0,-6.820000172,16,-3.440000057,0.0,0.239999995,0.252125204,0.263971299,0.009189751,-0.03425232,-1.706119082,0.0,0.0,1.0,0.0,0.0,0.0,1742551472.0,0
1742551471,875371858,0.009923583,0.01475893,0.75312525,-0.657636702,-0.008439382,-0.00142455,0.0,0.037536621,0.007873535,1.015136719,1,-4.300000191,0.0,0.140000001,1,-5.380000114,0.0,-6.309999943,19,3.25999999,0.0,0.270000011,0,2.079999924,0.0,0.5,0,0.680000007,0.0,-6.800000191,16,-3.440000057,0.0,0.230000004,0.252125204,0.263971299,0.009183972,-0.034366194,-1.706119564,0.0,0.0,1.0,0.0,0.0,0.0,1742551472.0,0
1742551471,915496247,0.010027331,0.014868727,0.753123283,-0.657634974,0.00936095,0.006952371,0.0,0.034973145,0.010803223,1.011108398,1,-4.300000191,0.0,0.150000006,1,-5.380000114,0.0,-6.28000021,19,3.25,-0.02,0.270000011,0,2.079999924,0.0,0.5,0,0.680000007,0.0,-6.849999905,16,-3.440000057,-0.01,0.219999999,0.252125204,0.263971299,0.009212987,-0.034666966,-1.706121551,0.0,0.0,1.0,0.0,0.0,0.0,1742551472.0,0
1742551471,975451176,0.010155852,0.01487858,0.753122509,-0.657633722,0.017725214,0.001720081,0.0,0.033325195,0.002380371,1.028503418,1,-4.300000191,0.0,0.150000006,1,-5.380000114,0.0,-6.320000172,19,3.25,0.0,0.189999998,0,2.079999924,0.0,0.5,0,0.680000007,0.0,-6.829999924,16,-3.440000057,0.0,0.140000001,0.252125204,0.263971299,0.009058758,-0.034873582,-1.706120753,0.0,0.0,1.0,0.0,0.0,0.0,1742551472.0,0
1742551472,15657521,0.010261422,0.014934384,0.753121614,-0.657631755,-7.71e-05,-0.002467591,0.0,0.038269043,0.002746582,0.991149902,1,-4.300000191,0.0,0.109999999,1,-5.380000114,0.0,-6.340000153,19,3.25,-0.01,0.330000013,0,2.079999924,0.0,0.469999999,0,0.680000007,0.0,-6.820000172,16,-3.440000057,-0.02,0.300000012,0.252125204,0.263971299,0.009004011,-0.035106059,-1.706122519,0.0,0.0,1.0,0.0,0.0,0.0,1742551472.0,0
1742551472,75498362,0.010400465,0.01499309,0.753120124,-0.657630026,0.011435889,-0.00666023,0.0,0.04284668,0.005859375,1.011108398,1,-4.300000191,0.0,0.150000006,1,-5.380000114,0.0,-6.320000172,19,3.25,0.0,0.219999999,0,2.079999924,0.0,0.50999999,0,0.680000007,0.0,-6.880000114,16,-3.440000057,-0.01,0.140000001,0.252125204,0.263971299,0.008909578,-0.0353928,-1.706122894,0.0,0.0,1.0,0.0,0.0,0.0,1742551472.0,0
1742551472,115539921,0.010423519,0.015055246,0.753119528,-0.657628894,-0.011596158,-0.003506202,0.0,0.039367676,0.008239746,0.990783691,1,-4.300000191,0.0,0.109999999,1,-5.380000114,0.0,-6.309999943,19,3.25,-0.01,0.25999999,0,2.079999924,0.0,0.519999981,0,0.680000007,0.0,-6.829999924,16,-3.440000057,-0.029999999,0.25,0.252125204,0.263971299,0.008972962,-0.035509302,-1.706125421,0.0,0.0,1.0,0.0,0.0,0.0,1742551472.0,0
1742551472,175704408,0.010546895,0.015151615,0.753117442,-0.657627106,-0.019981185,-0.00351497,0.0,0.033325195,0.024719238,1.024841309,1,-4.300000191,0.0,0.140000001,1,-5.380000114,0.0,-6.309999943,19,3.25,-0.01,0.170000002,0,2.079999924,0.0,0.50999999,0,0.680000007,0.0,-6.889999866,16,-3.440000057,-0.029999999,0.129999995,0.252125204,0.263971299,0.008955909,-0.035821987,-1.706126473,0.0,0.0,1.0,0.0,0.0,0.0,1742551472.0,0
1742551472,215519241,0.010567449,0.015176866,0.753117025,-0.657626569,-0.009503776,0.005909806,0.0,0.036621094,0.000366211,1.012023926,1,-4.300000191,0.0,0.090000004,1,-5.380000114,0.0,-6.329999924,19,3.25,-0.01,0.170000002,0,2.079999924,0.0,0.50999999,0,0.680000007,0.0,-6.829999924,16,-3.450000048,-0.039999999,0.170000002,0.252125204,0.263971299,0.008966935,-0.035886174,-1.706127084,0.0,0.0,1.0,0.0,0.0,0.0,1742551472.0,0
1742551472,275526570,0.010658998,0.015278835,0.753114402,-0.657625794,0.010382671,0.003806213,0.0,0.031494141,0.011535645,1.001586914,1,-4.300000191,0.0,0.140000001,1,-5.380000114,0.0,-6.309999943,19,3.25,-0.01,0.119999997,0,2.079999924,0.0,0.540000021,0,0.680000007,0.0,-6.909999847,16,-3.450000048,-0.039999999,0.100000001,0.252125204,0.263971299,0.009000161,-0.03615828,-1.706126701,0.0,0.0,1.0,0.0,0.0,0.0,1742551472.0,0
1742551472,315780955,0.010655279,0.015275427,0.753114164,-0.657626271,0.008283738,-0.017133899,0.0,0.049438477,0.00970459,1.007080078,1,-4.300000191,0.0,0.090000004,1,-5.380000114,0.0,-6.380000114,19,3.25,0.0,0.189999998,0,2.079999924,0.0,0.519999981,0,0.680000007,0.0,-6.840000153,16,-3.450000048,-0.050000001,0.189999998,0.252125204,0.263971299,0.008999899,-0.0361482,-1.706125703,0.0,0.0,1.0,0.0,0.0,0.0,1742551472.0,0
1742551472,375755070,0.010813404,0.015412331,0.753112614,-0.657622099,-0.011599053,0.005899489,0.0,0.029846191,0.016845703,1.020080566,1,-4.300000191,0.0,0.119999997,1,-5.380000114,0.0,-6.340000153,19,3.25,-0.01,0.119999997,0,2.079999924,0.0,0.540000021,0,0.680000007,0.0,-6.889999866,16,-3.450000048,-0.050000001,0.07,0.252125204,0.263971299,0.008998311,-0.036566549,-1.706131581,0.0,0.0,1.0,0.0,0.0,0.0,1742551472.0,0
1742551472,415544597,0.010836768,0.015432295,0.753112257,-0.657621801,-0.007409954,0.000664546,0.0,0.038635254,0.012634277,1.014770508,1,-4.300000191,0.0,0.119999997,1,-5.380000114,0.0,-6.369999886,19,3.25,0.0,-0.01,0,2.079999924,0.0,0.529999971,0,0.680000007,0.0,-6.880000114,16,-3.450000048,-0.029999999,-0.029999999,0.252125204,0.263971299,0.008997668,-0.036628023,-1.706132013,0.0,0.0,1.0,0.0,0.0,0.0,1742551472.0,0
1742551472,477631991,0.011025102,0.015588173,0.753109932,-0.657617569,-6.84e-05,-0.004577558,0.0,0.038635254,-0.000549316,1.024291992,1,-4.300000191,0.0,0.100000001,1,-5.380000114,0.0,-6.329999924,19,3.25,-0.02,0.109999999,0,2.079999924,0.0,0.50999999,0,0.680000007,0.0,-6.909999847,16,-3.460000038,-0.029999999,0.039999999,0.252125204,0.263971299,0.008984923,-0.037116862,-1.706137181,0.0,0.0,1.0,0.0,0.0,0.0,1742551472.0,0
1742551472,515907810,0.011182137,0.01567262,0.753108382,-0.657614768,0.004118759,-0.01400988,0.0,0.039001465,0.00769043,1.016235352,1,-4.300000191,0.0,0.140000001,1,-5.380000114,0.0,-6.429999828,19,3.25,0.0,0.02,0,2.079999924,0.0,0.550000012,0,0.680000007,0.0,-6.909999847,16,-3.460000038,-0.01,-0.01,0.252125204,0.263971299,0.008905654,-0.037464579,-1.706139548,0.0,0.0,1.0,0.0,0.0,0.0,1742551473.0,0
1742551472,575600557,0.01135886,0.015863627,0.753105581,-0.657610297,-0.01472239,0.011130362,0.0,0.037719727,0.021606445,1.028137207,1,-4.300000191,0.0,0.090000004,1,-5.380000114,0.0,-6.400000095,19,3.25,-0.01,0.0,0,2.079999924,0.0,0.550000012,0,0.680000007,0.0,-6.940000057,16,-3.460000038,-0.02,0.0,0.252125204,0.263971299,0.008961149,-0.037982143,-1.706145867,0.0,0.0,1.0,0.0,0.0,0.0,1742551473.0,0
1742551472,615592855,0.011525863,0.016012974,0.75310266,-0.657607198,0.002029701,-0.025526011,0.0,0.047607422,0.019775391,1.003417969,1,-4.300000191,0.0,0.150000006,1,-5.380000114,0.0,-6.409999847,19,3.25,-0.02,-0.090000004,0,2.079999924,0.0,0.569999993,0,0.680000007,0.0,-6.960000038,16,-3.460000038,-0.01,-0.129999995,0.252125204,0.263971299,0.008966587,-0.038430269,-1.706148913,0.0,0.0,1.0,0.0,0.0,0.0,1742551473.0,0
1742551472,675889096,0.011704133,0.016161088,0.753099799,-0.657603621,-0.017867267,-0.015049333,0.0,0.035522461,0.014465332,1.019348145,1,-4.300000191,0.0,0.119999997,1,-5.380000114,0.0,-6.420000076,19,3.24000001,-0.02,-0.140000001,0,2.079999924,0.0,0.560000002,0,0.680000007,0.0,-6.960000038,16,-3.460000038,-0.01,-0.200000003,0.252125204,0.263971299,0.008955356,-0.038893745,-1.706152293,0.0,0.0,1.0,0.0,0.0,0.0,1742551473.0,0
1742551472,716146039,0.011938996,0.016339932,0.753096521,-0.657598794,0.014599534,-0.009822132,0.0,0.04083252,0.012451172,1.010742188,1,-4.300000191,0.0,0.150000006,1,-5.380000114,0.0,-6.510000229,19,3.24000001,-0.02,-0.180000007,0,2.079999924,0.0,0.589999974,0,0.680000007,0.0,-6.960000038,16,-3.460000038,-0.02,-0.200000003,0.252125204,0.263971299,0.00891602,-0.039482928,-1.706157194,0.0,0.0,1.0,0.0,0.0,0.0,1742551473.0,0
1742551472,776461063,0.012125273,0.016516324,0.753093183,-0.65759474,-0.006343175,-0.017149054,0.0,0.051269531,0.007324219,1.007629395,1,-4.300000191,0.0,0.150000006,1,-5.380000114,0.0,-6.480000019,19,3.24000001,-0.02,-0.25999999,0,2.079999924,0.0,0.579999983,0,0.680000007,0.0,-7.03000021,16,-3.460000038,-0.02,-0.349999994,0.252125204,0.263971299,0.008936896,-0.039995679,-1.706161535,0.0,0.0,1.0,0.0,0.0,0.0,1742551473.0,0
1742551472,815533986,0.012309088,0.016708393,0.753089368,-0.657590806,-0.007392677,-0.004579549,0.0,0.038085938,0.023071289,1.006347656,1,-4.300000191,0.0,0.159999996,1,-5.380000114,0.0,-6.449999809,19,3.24000001,-0.039999999,-0.219999999,0,2.079999924,0.0,0.569999993,0,0.680000007,0.0,-7.039999962,16,-3.470000029,-0.039999999,-0.289999992,0.252125204,0.263971299,0.008984637,-0.04052535,-1.706165733,0.0,0.0,1.0,0.0,0.0,0.0,1742551473.0,0
1742551472,875400774,0.012490579,0.016902812,0.753085971,-0.657586396,0.03869031,-0.004572585,0.0,0.051635742,0.013183594,1.022827148,1,-4.300000191,0.0,0.170000002,1,-5.380000114,0.0,-6.510000229,19,3.230000019,-0.050000001,-0.289999992,0,2.079999924,0.0,0.589999974,0,0.680000007,0.0,-7.110000134,16,-3.470000029,-0.029999999,-0.370000005,0.252125204,0.263971299,0.009039011,-0.04105461,-1.70617152,0.0,0.0,1.0,0.0,0.0,0.0,1742551473.0,0
1742551472,915840843,0.012603902,0.017033067,0.753084064,-0.657582998,-0.005284813,-0.012945858,0.0,0.029846191,0.010986328,1.014770508,1,-4.300000191,-0.01,0.170000002,1,-5.380000114,0.0,-6.449999809,19,3.230000019,-0.079999998,-0.230000004,0,2.079999924,0.0,0.550000012,0,0.680000007,0.0,-7.090000153,16,-3.470000029,-0.050000001,-0.360000014,0.252125204,0.263971299,0.009086348,-0.041396728,-1.70617658,0.0,0.0,1.0,0.0,0.0,0.0,1742551473.0,0
1742551472,975394594,0.012677747,0.017108824,0.753082871,-0.657581091,-0.01679687,0.003807697,0.0,0.04486084,0.016479492,1.00982666,1,-4.300000191,0.0,0.209999993,1,-5.380000114,0.0,-6.46999979,19,3.220000029,-0.119999997,-0.230000004,0,2.079999924,0.0,0.529999971,0,0.680000007,0.0,-7.130000114,16,-3.470000029,-0.050000001,-0.400000006,0.252125204,0.263971299,0.009103436,-0.041607671,-1.706179348,0.0,0.0,1.0,0.0,0.0,0.0,1742551473.0,0
1742551473,15791599,0.012607982,0.017122865,0.753083169,-0.657581687,0.018820181,-0.001431987,0.0,0.037536621,0.008239746,1.005065918,1,-4.300000191,-0.01,0.230000004,1,-5.380000114,0.0,-6.400000095,19,3.210000038,-0.200000003,-0.129999995,0,2.079999924,0.0,0.469999999,0,0.680000007,0.0,-7.150000095,16,-3.480000019,-0.07,-0.389999986,0.252125204,0.263971299,0.0092164,-0.041521013,-1.706180743,0.0,0.0,1.0,0.0,0.0,0.0,1742551473.0,0
